"","total_type","lat","lon","ProviderName","OrganizationIdentifier","OrganizationFormalName","MonitoringLocationIdentifier","MonitoringLocationName","MonitoringLocationTypeName","ResolvedMonitoringLocationTypeName","HUCEightDigitCode","siteUrl","activityCount","resultCount","StateName","CountyName"
"1","FeatureCollection Feature Point",39.051852,-120.1185209,"NWIS","USGS-CA","USGS California Water Science Center","USGS-10336645","GENERAL C NR MEEKS BAY CA","Stream","Stream","16050101","https://www.waterqualitydata.us/data/provider/NWIS/USGS-CA/USGS-10336645/",777,1186,"California","El Dorado County"
"2","FeatureCollection Feature Point",39.1074071,-120.1621352,"NWIS","USGS-CA","USGS California Water Science Center","USGS-10336660","BLACKWOOD C NR TAHOE CITY CA","Stream","Stream","16050101","https://www.waterqualitydata.us/data/provider/NWIS/USGS-CA/USGS-10336660/",822,1251,"California","Placer County"
"3","FeatureCollection Feature Point",39.1407401,-120.2121377,"NWIS","USGS-CA","USGS California Water Science Center","USGS-10336674","WARD C BL CONFLUENCE NR TAHOE CITY CA","Stream","Stream","16050101","https://www.waterqualitydata.us/data/provider/NWIS/USGS-CA/USGS-10336674/",417,634,"California","Placer County"
"4","FeatureCollection Feature Point",39.1321292,-120.1576913,"NWIS","USGS-CA","USGS California Water Science Center","USGS-10336676","WARD C AT HWY 89 NR TAHOE PINES CA","Stream","Stream","16050101","https://www.waterqualitydata.us/data/provider/NWIS/USGS-CA/USGS-10336676/",844,1298,"California","Placer County"
"5","FeatureCollection Feature Point",37.6760406,-121.2663293,"NWIS","USGS-CA","USGS California Water Science Center","USGS-11303500","SAN JOAQUIN R NR VERNALIS CA","Stream","Stream","18040003","https://www.waterqualitydata.us/data/provider/NWIS/USGS-CA/USGS-11303500/",860,1468,"California","San Joaquin County"
"6","FeatureCollection Feature Point",38.4560195,-121.5013437,"NWIS","USGS-CA","USGS California Water Science Center","USGS-11447650","SACRAMENTO R A FREEPORT CA","Stream","Stream","18020163","https://www.waterqualitydata.us/data/provider/NWIS/USGS-CA/USGS-11447650/",541,960,"California","Sacramento County"
"7","FeatureCollection Feature Point",38.796296,-120.0190718,"NWIS","USGS-NV","USGS Nevada Water Science Center","USGS-10336580","UPPER TRUCKEE RV AT S UPPER TRUCKEE RD NR MEYERS","Stream","Stream","16050101","https://www.waterqualitydata.us/data/provider/NWIS/USGS-NV/USGS-10336580/",501,728,"California","El Dorado County"
"8","FeatureCollection Feature Point",38.8485185,-120.0271275,"NWIS","USGS-NV","USGS Nevada Water Science Center","USGS-103366092","UPPER TRUCKEE RV AT HWY 50 ABV MEYERS, CA","Stream","Stream","16050101","https://www.waterqualitydata.us/data/provider/NWIS/USGS-NV/USGS-103366092/",488,720,"California","El Dorado County"
"9","FeatureCollection Feature Point",36.9547,-121.771,"STORET","CEDEN","California State Water Resources Control Board","CEDEN-PintoLake_Buoy2","Pinto Lake Monitoring Buoy 2","Other-Surface Water","Aggregate surface-water-use","18060002","https://www.waterqualitydata.us/data/provider/STORET/CEDEN/CEDEN-PintoLake_Buoy2/",540,540,"California","Santa Cruz County"
"10","FeatureCollection Feature Point",42.9558,-122.083,"STORET","11NPSWRD_WQX","National Park Service Water Resources Division","11NPSWRD_WQX-CRLA_LTLMP_ST13","Crater Lake Station 13, Long Term Monitoring Program","Lake","Lake, Reservoir, Impoundment","18010201","https://www.waterqualitydata.us/data/provider/STORET/11NPSWRD_WQX/11NPSWRD_WQX-CRLA_LTLMP_ST13/",722,722,"Oregon","Klamath County"
"11","FeatureCollection Feature Point",45.1003982,-122.8217596,"NWIS","USGS-OR","USGS Oregon Water Science Center","USGS-14201300","ZOLLNER CREEK NEAR MT ANGEL, OR","Stream","Stream","17090009","https://www.waterqualitydata.us/data/provider/NWIS/USGS-OR/USGS-14201300/",405,688,"Oregon","Marion County"
"12","FeatureCollection Feature Point",45.4673339,-123.2917776,"NWIS","USGS-OR","USGS Oregon Water Science Center","USGS-14202300","TUALATIN RIVER AT CHERRY GROVE, OR.","Stream","Stream","17090010","https://www.waterqualitydata.us/data/provider/NWIS/USGS-OR/USGS-14202300/",531,531,"Oregon","Washington County"
"13","FeatureCollection Feature Point",45.4692797,-123.200109,"NWIS","USGS-OR","USGS Oregon Water Science Center","USGS-14202980","SCOGGINS CK BLW HENRY HAGG LAKE, NR GASTON, OR","Stream","Stream","17090010","https://www.waterqualitydata.us/data/provider/NWIS/USGS-OR/USGS-14202980/",509,509,"Oregon","Washington County"
"14","FeatureCollection Feature Point",45.4748365,-123.124274,"NWIS","USGS-OR","USGS Oregon Water Science Center","USGS-14203500","TUALATIN RIVER NEAR DILLEY, OR","Stream","Stream","17090010","https://www.waterqualitydata.us/data/provider/NWIS/USGS-OR/USGS-14203500/",907,908,"Oregon","Washington County"
"15","FeatureCollection Feature Point",45.5106697,-123.1156632,"NWIS","USGS-OR","USGS Oregon Water Science Center","USGS-14204530","GALES CREEK AT ROUTE 47 AT FOREST GROVE, OR","Stream","Stream","17090010","https://www.waterqualitydata.us/data/provider/NWIS/USGS-OR/USGS-14204530/",709,710,"Oregon","Washington County"
"16","FeatureCollection Feature Point",45.5020597,-123.0562173,"NWIS","USGS-OR","USGS Oregon Water Science Center","USGS-14204800","TUALATIN RIVER AT GOLF COURSE RD NR CORNELIUS, OR","Stream","Stream","17090010","https://www.waterqualitydata.us/data/provider/NWIS/USGS-OR/USGS-14204800/",1020,1020,"Oregon","Washington County"
"17","FeatureCollection Feature Point",45.5198381,-123.0106608,"NWIS","USGS-OR","USGS Oregon Water Science Center","USGS-14206200","DAIRY CREEK AT RTE 8 NEAR HILLSBORO, OR","Stream","Stream","17090010","https://www.waterqualitydata.us/data/provider/NWIS/USGS-OR/USGS-14206200/",1017,1020,"Oregon","Washington County"
"18","FeatureCollection Feature Point",45.5001163,-122.9912157,"NWIS","USGS-OR","USGS Oregon Water Science Center","USGS-14206241","TUALATIN RIVER AT HWY 219 NEAR HILLSBORO, OR","Stream","Stream","17090010","https://www.waterqualitydata.us/data/provider/NWIS/USGS-OR/USGS-14206241/",954,954,"Oregon","Washington County"
"19","FeatureCollection Feature Point",45.4901167,-122.9514922,"NWIS","USGS-OR","USGS Oregon Water Science Center","USGS-14206295","TUALATIN RIVER AT ROOD BRIDGE AT HILLSBORO, OR","Stream","Stream","17090010","https://www.waterqualitydata.us/data/provider/NWIS/USGS-OR/USGS-14206295/",922,923,"Oregon","Washington County"
"20","FeatureCollection Feature Point",45.5551168,-122.8081555,"NWIS","USGS-OR","USGS Oregon Water Science Center","USGS-14206419","BRONSON CREEK AT SALTZMAN ROAD","Stream","Stream","17090010","https://www.waterqualitydata.us/data/provider/NWIS/USGS-OR/USGS-14206419/",508,508,"Oregon","Washington County"
"21","FeatureCollection Feature Point",45.5206722,-122.8995466,"NWIS","USGS-OR","USGS Oregon Water Science Center","USGS-14206435","BEAVERTON CREEK AT SW 216TH AVE, NR ORENCO, OR","Stream","Stream","17090010","https://www.waterqualitydata.us/data/provider/NWIS/USGS-OR/USGS-14206435/",502,502,"Oregon","Washington County"
"22","FeatureCollection Feature Point",45.5237277,-122.9092692,"NWIS","USGS-OR","USGS Oregon Water Science Center","USGS-14206445","See new number 14206347","Stream","Stream","17090010","https://www.waterqualitydata.us/data/provider/NWIS/USGS-OR/USGS-14206445/",684,684,"Oregon","Washington County"
"23","FeatureCollection Feature Point",45.5023388,-122.9478811,"NWIS","USGS-OR","USGS Oregon Water Science Center","USGS-14206450","ROCK CREEK NEAR HILLSBORO,OREG.","Stream","Stream","17090010","https://www.waterqualitydata.us/data/provider/NWIS/USGS-OR/USGS-14206450/",545,547,"Oregon","Washington County"
"24","FeatureCollection Feature Point",45.4178952,-122.9209346,"NWIS","USGS-OR","USGS Oregon Water Science Center","USGS-14206690","TUALATIN RIVER AT HWY 210 BRIDGE, NR SCHOLLS, OR","Stream","Stream","17090010","https://www.waterqualitydata.us/data/provider/NWIS/USGS-OR/USGS-14206690/",1159,1159,"Oregon","Washington County"
"25","FeatureCollection Feature Point",45.3881737,-122.8517655,"NWIS","USGS-OR","USGS Oregon Water Science Center","USGS-14206740","TUALATIN RIVER AT ELSNER RD NEAR SHERWOOD, OR","Stream","Stream","17090010","https://www.waterqualitydata.us/data/provider/NWIS/USGS-OR/USGS-14206740/",1077,1077,"Oregon","Washington County"
"26","FeatureCollection Feature Point",45.3748404,-122.8564876,"NWIS","USGS-OR","USGS Oregon Water Science Center","USGS-14206750","CHICKEN CREEK NEAR SHERWOOD, OR","Stream","Stream","17090010","https://www.waterqualitydata.us/data/provider/NWIS/USGS-OR/USGS-14206750/",915,915,"Oregon","Washington County"
"27","FeatureCollection Feature Point",45.4709512,-122.7748202,"NWIS","USGS-OR","USGS Oregon Water Science Center","USGS-14206925","FANNO CREEK AT SCHOLLS FERRY ROAD NEAR ALLEN BLVD","Stream","Stream","17090010","https://www.waterqualitydata.us/data/provider/NWIS/USGS-OR/USGS-14206925/",618,620,"Oregon","Washington County"
"28","FeatureCollection Feature Point",45.403452,-122.7548185,"NWIS","USGS-OR","USGS Oregon Water Science Center","USGS-14206950","FANNO CREEK AT DURHAM, OR","Stream","Stream","17090010","https://www.waterqualitydata.us/data/provider/NWIS/USGS-OR/USGS-14206950/",1398,1628,"Oregon","Washington County"
"29","FeatureCollection Feature Point",45.3859522,-122.7573183,"NWIS","USGS-OR","USGS Oregon Water Science Center","USGS-14206960","TUALATIN RIVER AT BOONES FERRY RD AT TUALATIN, OR","Stream","Stream","17090010","https://www.waterqualitydata.us/data/provider/NWIS/USGS-OR/USGS-14206960/",1322,1322,"Oregon","Washington County"
"30","FeatureCollection Feature Point",45.3795639,-122.6978721,"NWIS","USGS-OR","USGS Oregon Water Science Center","USGS-14207050","TUALATIN RIVER AT STAFFORD RD NR LAKE OSWEGO, OR","Stream","Stream","17090010","https://www.waterqualitydata.us/data/provider/NWIS/USGS-OR/USGS-14207050/",1371,1385,"Oregon","Clackamas County"
"31","FeatureCollection Feature Point",45.3395648,-122.654537,"NWIS","USGS-OR","USGS Oregon Water Science Center","USGS-14207600","TUALATIN RIVER AT WEISS BRIDGE AT WEST LINN, OR","Stream","Stream","17090010","https://www.waterqualitydata.us/data/provider/NWIS/USGS-OR/USGS-14207600/",973,973,"Oregon","Clackamas County"
"32","FeatureCollection Feature Point",45.5175,-122.6691667,"NWIS","USGS-OR","USGS Oregon Water Science Center","USGS-14211720","WILLAMETTE RIVER AT PORTLAND, OR","Stream","Stream","17090012","https://www.waterqualitydata.us/data/provider/NWIS/USGS-OR/USGS-14211720/",578,1046,"Oregon","Multnomah County"
"33","FeatureCollection Feature Point",46.1812214,-123.1834539,"NWIS","USGS-OR","USGS Oregon Water Science Center","USGS-14246900","COLUMBIA RIVER AT PORT WESTWARD, NEAR QUINCY, OR","Stream","Stream","17080003","https://www.waterqualitydata.us/data/provider/NWIS/USGS-OR/USGS-14246900/",333,732,"Oregon","Columbia County"
"34","FeatureCollection Feature Point",45.5009505,-122.852045,"NWIS","USGS-OR","USGS Oregon Water Science Center","USGS-453004122510301","BEAVERTON CREEK AT 170TH AVE, BEAVERTON, OR","Stream","Stream","17090010","https://www.waterqualitydata.us/data/provider/NWIS/USGS-OR/USGS-453004122510301/",514,514,"Oregon","Washington County"
"35","FeatureCollection Feature Point",47.6062108,-122.1378999,"NWIS","USGS-WA","USGS Washington Water Science Center","USGS-12119725","LAKE HILLS STORM SEWER OUTFALL AT BELLEVUE, WA","Facility: Outfall","Facility","17110012","https://www.waterqualitydata.us/data/provider/NWIS/USGS-WA/USGS-12119725/",271,801,"Washington","King County"
"36","FeatureCollection Feature Point",47.6000997,-122.1428999,"NWIS","USGS-WA","USGS Washington Water Science Center","USGS-12119730","148TH AVE STORM SWR BL LK HILLS BLVD BELLEVUE, WA","Stream","Stream","17110012","https://www.waterqualitydata.us/data/provider/NWIS/USGS-WA/USGS-12119730/",198,584,"Washington","King County"
"37","FeatureCollection Feature Point",47.6003771,-122.1929006,"NWIS","USGS-WA","USGS Washington Water Science Center","USGS-12120005","SURREY DOWNS STORM SEWER OUTFALL AT BELLEVUE, WA","Facility: Outfall","Facility","17110012","https://www.waterqualitydata.us/data/provider/NWIS/USGS-WA/USGS-12120005/",242,684,"Washington","King County"
"38","FeatureCollection Feature Point",46.343463,-120.186995,"NWIS","USGS-WA","USGS Washington Water Science Center","USGS-12505450","GRANGER DRAIN AT GRANGER, WA","Stream","Stream","17030003","https://www.waterqualitydata.us/data/provider/NWIS/USGS-WA/USGS-12505450/",324,544,"Washington","Yakima County"
"39","FeatureCollection Feature Point",47.35862,-122.3871,"STORET","KINGCOUNTY","King County (Washington)","KINGCOUNTY-NSEX01","East Passage","Estuary","Estuary","17110019","https://www.waterqualitydata.us/data/provider/STORET/KINGCOUNTY/KINGCOUNTY-NSEX01/",691,691,"Washington","King County"
"40","FeatureCollection Feature Point",48.2184,-122.136,"STORET","WASIT","STILLAGUAMISH TRIBE OF INDIANS","WASIT-009","Harvey/Arm","Facility Other","Facility","17110008","https://www.waterqualitydata.us/data/provider/STORET/WASIT/WASIT-009/",59,595,"",""
"41","FeatureCollection Feature Point",48.2785,-121.958,"STORET","WASIT","STILLAGUAMISH TRIBE OF INDIANS","WASIT-016","North Fork","Facility Other","Facility","17110008","https://www.waterqualitydata.us/data/provider/STORET/WASIT/WASIT-016/",57,575,"",""
"42","FeatureCollection Feature Point",48.2099,-122.226,"STORET","WASIT","STILLAGUAMISH TRIBE OF INDIANS","WASIT-022","Main Stilly","Facility Other","Facility","17110008","https://www.waterqualitydata.us/data/provider/STORET/WASIT/WASIT-022/",60,605,"",""
"43","FeatureCollection Feature Point",48.2087,-122.222,"STORET","WASIT","STILLAGUAMISH TRIBE OF INDIANS","WASIT-207","Mainstem Stillaguamish R upstream of Pilchuck Cr","Facility Other","Facility","17110008","https://www.waterqualitydata.us/data/provider/STORET/WASIT/WASIT-207/",61,602,"",""
"44","FeatureCollection Feature Point",48.2264,-122.224,"STORET","WASIT","STILLAGUAMISH TRIBE OF INDIANS","WASIT-208","Secret Creek at Old Alpaca Farm","Facility Other","Facility","17110008","https://www.waterqualitydata.us/data/provider/STORET/WASIT/WASIT-208/",58,583,"",""
"45","FeatureCollection Feature Point",48.0979,-122.002,"STORET","WASIT","STILLAGUAMISH TRIBE OF INDIANS","WASIT-210","Brenner Creek (Lower)","Facility Other","Facility","17110008","https://www.waterqualitydata.us/data/provider/STORET/WASIT/WASIT-210/",57,584,"",""
"46","FeatureCollection Feature Point",48.2102,-122.186,"STORET","WASIT","STILLAGUAMISH TRIBE OF INDIANS","WASIT-224","Trib 05-0120 236th St NE","Facility Other","Facility","17110008","https://www.waterqualitydata.us/data/provider/STORET/WASIT/WASIT-224/",57,565,"",""
"47","FeatureCollection Feature Point",33.8833488,-117.6453296,"NWIS","USGS-CA","USGS California Water Science Center","USGS-11074000","SANTA ANA R BL PRADO DAM CA","Stream","Stream","18070203","https://www.waterqualitydata.us/data/provider/NWIS/USGS-CA/USGS-11074000/",713,1143,"California","Riverside County"
"48","FeatureCollection Feature Point",39.2404632,-119.9465774,"NWIS","USGS-CA","USGS California Water Science Center","USGS-10336698","THIRD CK NR CRYSTAL BAY, NV","Stream","Stream","16050101","https://www.waterqualitydata.us/data/provider/NWIS/USGS-CA/USGS-10336698/",986,1408,"Nevada","Washoe County"
"49","FeatureCollection Feature Point",39.258797,-119.9232439,"NWIS","USGS-CA","USGS California Water Science Center","USGS-103366993","INCLINE CK ABV TYROL VILLAGE NR INCLINE VILLAGE NV","Stream","Stream","16050101","https://www.waterqualitydata.us/data/provider/NWIS/USGS-CA/USGS-103366993/",484,709,"Nevada","Washoe County"
"50","FeatureCollection Feature Point",39.2454634,-119.9390773,"NWIS","USGS-CA","USGS California Water Science Center","USGS-103366995","Incline Ck at Hwy 28 at Incline Village, NV","Stream","Stream","16050101","https://www.waterqualitydata.us/data/provider/NWIS/USGS-CA/USGS-103366995/",388,514,"Nevada","Washoe County"
"51","FeatureCollection Feature Point",39.2401855,-119.9449106,"NWIS","USGS-CA","USGS California Water Science Center","USGS-10336700","INCLINE CK NR CRYSTAL BAY, NV","Stream","Stream","16050101","https://www.waterqualitydata.us/data/provider/NWIS/USGS-CA/USGS-10336700/",968,1388,"Nevada","Washoe County"
"52","FeatureCollection Feature Point",38.93213,-119.9787926,"NWIS","USGS-CA","USGS California Water Science Center","USGS-10336790","TROUT C A SOUTH LAKE TAHOE CA","Stream","Stream","16050101","https://www.waterqualitydata.us/data/provider/NWIS/USGS-CA/USGS-10336790/",690,1070,"California","El Dorado County"
"53","FeatureCollection Feature Point",37.731315,-119.5590514,"NWIS","USGS-CA","USGS California Water Science Center","USGS-11264500","MERCED R A HAPPY ISLES BRIDGE NR YOSEMITE CA","Stream","Stream","18040008","https://www.waterqualitydata.us/data/provider/NWIS/USGS-CA/USGS-11264500/",387,587,"California","Mariposa County"
"54","FeatureCollection Feature Point",38.9224078,-119.9915706,"NWIS","USGS-NV","USGS Nevada Water Science Center","USGS-10336610","UPPER TRUCKEE RV AT SOUTH LAKE TAHOE, CA","Stream","Stream","16050101","https://www.waterqualitydata.us/data/provider/NWIS/USGS-NV/USGS-10336610/",749,1133,"California","El Dorado County"
"55","FeatureCollection Feature Point",39.0874081,-119.9399057,"NWIS","USGS-NV","USGS Nevada Water Science Center","USGS-10336730","GLENBROOK CK AT GLENBROOK, NV","Stream","Stream","16050101","https://www.waterqualitydata.us/data/provider/NWIS/USGS-NV/USGS-10336730/",645,951,"Nevada","Douglas County"
"56","FeatureCollection Feature Point",39.0665748,-119.9354605,"NWIS","USGS-NV","USGS Nevada Water Science Center","USGS-10336740","LOGAN HOUSE CK NR GLENBROOK, NV","Stream","Stream","16050101","https://www.waterqualitydata.us/data/provider/NWIS/USGS-NV/USGS-10336740/",585,870,"Nevada","Douglas County"
"57","FeatureCollection Feature Point",38.9565745,-119.9276805,"NWIS","USGS-NV","USGS Nevada Water Science Center","USGS-103367592","EAGLE ROCK CK NR STATELINE, NV","Stream","Stream","16050101","https://www.waterqualitydata.us/data/provider/NWIS/USGS-NV/USGS-103367592/",392,596,"Nevada","Douglas County"
"58","FeatureCollection Feature Point",38.966019,-119.937125,"NWIS","USGS-NV","USGS Nevada Water Science Center","USGS-10336760","EDGEWOOD CK AT STATELINE, NV","Stream","Stream","16050101","https://www.waterqualitydata.us/data/provider/NWIS/USGS-NV/USGS-10336760/",450,683,"Nevada","Douglas County"
"59","FeatureCollection Feature Point",38.9033944,-119.9688917,"NWIS","USGS-NV","USGS Nevada Water Science Center","USGS-10336775","TROUT CK AT PIONEER TRAIL NR SOUTH LAKE TAHOE, CA","Stream","Stream","16050101","https://www.waterqualitydata.us/data/provider/NWIS/USGS-NV/USGS-10336775/",485,728,"California","El Dorado County"
"60","FeatureCollection Feature Point",43.0022222,-115.2025,"NWIS","USGS-ID","USGS Idaho Water Science Center","USGS-13154500","SNAKE RIVER AT KING HILL ID","Stream","Stream","17050101","https://www.waterqualitydata.us/data/provider/NWIS/USGS-ID/USGS-13154500/",551,923,"Idaho","Elmore County"
"61","FeatureCollection Feature Point",43.7816667,-116.9727778,"NWIS","USGS-ID","USGS Idaho Water Science Center","USGS-13213000","BOISE RIVER NR PARMA ID","Stream","Stream","17050114","https://www.waterqualitydata.us/data/provider/NWIS/USGS-ID/USGS-13213000/",1642,1789,"Idaho","Canyon County"
"62","FeatureCollection Feature Point",48.9896306,-115.1809694,"NWIS","USGS-MT","USGS Montana Water Science Center","USGS-12300110","Lake Koocanusa at international boundary","Lake, Reservoir, Impoundment","Lake, Reservoir, Impoundment","17010101","https://www.waterqualitydata.us/data/provider/NWIS/USGS-MT/USGS-12300110/",572,709,"Montana","Lincoln County"
"63","FeatureCollection Feature Point",48.5849592,-115.2321101,"NWIS","USGS-MT","USGS Montana Water Science Center","USGS-12301830","Lake Koocanusa at Tenmile Cr nr Libby MT","Lake, Reservoir, Impoundment","Lake, Reservoir, Impoundment","17010101","https://www.waterqualitydata.us/data/provider/NWIS/USGS-MT/USGS-12301830/",764,959,"Montana","Lincoln County"
"64","FeatureCollection Feature Point",48.4119011,-115.3101636,"NWIS","USGS-MT","USGS Montana Water Science Center","USGS-12301919","Lake Koocanusa at forebay, nr Libby MT","Lake, Reservoir, Impoundment","Lake, Reservoir, Impoundment","17010101","https://www.waterqualitydata.us/data/provider/NWIS/USGS-MT/USGS-12301919/",763,953,"Montana","Lincoln County"
"65","FeatureCollection Feature Point",48.4006639,-115.3187194,"NWIS","USGS-MT","USGS Montana Water Science Center","USGS-12301933","Kootenai River bl Libby Dam nr Libby MT","Stream","Stream","17010101","https://www.waterqualitydata.us/data/provider/NWIS/USGS-MT/USGS-12301933/",580,728,"Montana","Lincoln County"
"66","FeatureCollection Feature Point",46.9348604,-119.5647553,"NWIS","USGS-WA","USGS Washington Water Science Center","USGS-12466100","WEST CANAL NEAR ROYAL CITY, WA","Stream: Canal","Stream","17020015","https://www.waterqualitydata.us/data/provider/NWIS/USGS-WA/USGS-12466100/",1020,1508,"Washington","Grant County"
"67","FeatureCollection Feature Point",46.9148605,-119.5428093,"NWIS","USGS-WA","USGS Washington Water Science Center","USGS-12472300","DW 272 A1 DRAIN NEAR ROYAL CAMP, WA","Stream","Stream","17020015","https://www.waterqualitydata.us/data/provider/NWIS/USGS-WA/USGS-12472300/",1734,2446,"Washington","Grant County"
"68","FeatureCollection Feature Point",46.9159717,-119.5433649,"NWIS","USGS-WA","USGS Washington Water Science Center","USGS-12472350","DW 272 A DRAIN NEAR ROYAL CAMP, WA","Stream","Stream","17020015","https://www.waterqualitydata.us/data/provider/NWIS/USGS-WA/USGS-12472350/",1739,2452,"Washington","Grant County"
"69","FeatureCollection Feature Point",46.7295846,-119.0500081,"NWIS","USGS-WA","USGS Washington Water Science Center","USGS-12473740","EL 68 D WASTEWAY NEAR OTHELLO, WA","Stream","Stream","17020016","https://www.waterqualitydata.us/data/provider/NWIS/USGS-WA/USGS-12473740/",571,759,"Washington","Franklin County"
"70","FeatureCollection Feature Point",46.2534675,-119.4780794,"NWIS","USGS-WA","USGS Washington Water Science Center","USGS-12510500","YAKIMA RIVER AT KIONA, WA","Stream","Stream","17030003","https://www.waterqualitydata.us/data/provider/NWIS/USGS-WA/USGS-12510500/",565,983,"Washington","Benton County"
"71","FeatureCollection Feature Point",32.8849361,-114.468111,"NWIS","USGS-AZ","USGS Arizona Water Science Center","USGS-09429490","COLORADO RIVER ABOVE IMPERIAL DAM, AZ-CA","Stream","Stream","15030104","https://www.waterqualitydata.us/data/provider/NWIS/USGS-AZ/USGS-09429490/",310,511,"California","Imperial County"
"72","FeatureCollection Feature Point",33.6194949,-110.9215037,"NWIS","USGS-AZ","USGS Arizona Water Science Center","USGS-09498500","SALT RIVER NEAR ROOSEVELT, AZ","Stream","Stream","15060103","https://www.waterqualitydata.us/data/provider/NWIS/USGS-AZ/USGS-09498500/",388,565,"Arizona","Gila County"
"73","FeatureCollection Feature Point",32.7186587,-114.7188444,"NWIS","USGS-AZ","USGS Arizona Water Science Center","USGS-09522000","COLORADO RIVER AT NIB, ABOVE MORELOS DAM, AZ","Stream","Stream","15030107","https://www.waterqualitydata.us/data/provider/NWIS/USGS-AZ/USGS-09522000/",663,1088,"Arizona","Yuma County"
"74","FeatureCollection Feature Point",36.8643333,-111.5878722,"NWIS","USGS-AZ","USGS Arizona Water Science Center","USGS-09380000","COLORADO RIVER AT LEES FERRY, AZ","Stream","Stream","14070006","https://www.waterqualitydata.us/data/provider/NWIS/USGS-AZ/USGS-09380000/",481,821,"Arizona","Coconino County"
"75","FeatureCollection Feature Point",36.0874754,-114.9858276,"NWIS","USGS-NV","USGS Nevada Water Science Center","USGS-09419700","LAS VEGAS WASH AT PABCO RD NR HENDERSON, NV","Stream","Stream","15010015","https://www.waterqualitydata.us/data/provider/NWIS/USGS-NV/USGS-09419700/",303,571,"Nevada","Clark County"
"76","FeatureCollection Feature Point",36.0152585,-114.7385936,"NWIS","USGS-NV","USGS Nevada Water Science Center","USGS-09421500","COLORADO RV BLW HOOVER DAM, AZ-NV","Stream","Stream","15030101","https://www.waterqualitydata.us/data/provider/NWIS/USGS-NV/USGS-09421500/",275,560,"Nevada","Clark County"
"77","FeatureCollection Feature Point",42.5625,-114.4947222,"NWIS","USGS-ID","USGS Idaho Water Science Center","USGS-13092747","ROCK CREEK AB HWY 30/93 XING AT TWIN FALLS ID","Stream","Stream","17040212","https://www.waterqualitydata.us/data/provider/NWIS/USGS-ID/USGS-13092747/",418,726,"Idaho","Twin Falls County"
"78","FeatureCollection Feature Point",41.2782765,-112.0918866,"NWIS","USGS-UT","USGS Utah Water Science Center","USGS-10141000","WEBER RIVER NEAR PLAIN CITY, UT","Stream","Stream","16020102","https://www.waterqualitydata.us/data/provider/NWIS/USGS-UT/USGS-10141000/",247,503,"Utah","Weber County"
"79","FeatureCollection Feature Point",40.6643056,-111.898861,"NWIS","USGS-UT","USGS Utah Water Science Center","USGS-10168000","LITTLE COTTONWOOD CREEK @ JORDAN RIVER NR SLC","Stream","Stream","16020204","https://www.waterqualitydata.us/data/provider/NWIS/USGS-UT/USGS-10168000/",343,620,"Utah","Salt Lake County"
"80","FeatureCollection Feature Point",40.7335574,-111.9232703,"NWIS","USGS-UT","USGS Utah Water Science Center","USGS-10171000","JORDAN RIVER @ 1700 SOUTH @ SALT LAKE CITY, UT","Stream","Stream","16020204","https://www.waterqualitydata.us/data/provider/NWIS/USGS-UT/USGS-10171000/",429,841,"Utah","Salt Lake County"
"81","FeatureCollection Feature Point",40.89883,-112.3496756,"NWIS","USGS-UT","USGS Utah Water Science Center","USGS-405356112205601","GSL 3510, 6 MI WEST OF ANTELOPE ISLAND","Lake, Reservoir, Impoundment","Lake, Reservoir, Impoundment","16020310","https://www.waterqualitydata.us/data/provider/NWIS/USGS-UT/USGS-405356112205601/",461,789,"Utah","Davis County"
"82","FeatureCollection Feature Point",41.1121562,-112.641357,"NWIS","USGS-UT","USGS Utah Water Science Center","USGS-410644112382601","GSL 2565, NW OF HAT ISLAND","Lake, Reservoir, Impoundment","Lake, Reservoir, Impoundment","16020310","https://www.waterqualitydata.us/data/provider/NWIS/USGS-UT/USGS-410644112382601/",428,741,"Utah","Box Elder County"
"83","FeatureCollection Feature Point",41.1877149,-112.4130094,"NWIS","USGS-UT","USGS Utah Water Science Center","USGS-411116112244401","GSL 2267, 1 MI NW OF FREMONT ISLAND","Lake, Reservoir, Impoundment","Lake, Reservoir, Impoundment","16020310","https://www.waterqualitydata.us/data/provider/NWIS/USGS-UT/USGS-411116112244401/",354,583,"Utah","Box Elder County"
"84","FeatureCollection Feature Point",42.0209722,-110.0498056,"NWIS","USGS-WY","USGS Wyoming Water Science Center","USGS-09211200","GREEN RIVER BELOW FONTENELLE RESERVOIR, WY","Stream","Stream","14040103","https://www.waterqualitydata.us/data/provider/NWIS/USGS-WY/USGS-09211200/",471,793,"Wyoming","Sweetwater County"
"85","FeatureCollection Feature Point",42.5219444,-114.0169444,"STORET","1119USBR_WQX","Bureau of Reclamation","1119USBR_WQX-CSP111","Twin Falls Canal 1 mile South of MilnerDam","Canal Irrigation","Stream","17040212","https://www.waterqualitydata.us/data/provider/STORET/1119USBR_WQX/1119USBR_WQX-CSP111/",914,914,"Idaho","Twin Falls County"
"86","FeatureCollection Feature Point",33.6790833,-106.997,"NWIS","USGS-NM","USGS New Mexico Water Science Center","USGS-08358400","RIO GRANDE FLOODWAY AT SAN MARCIAL, NM","Stream","Stream","13020211","https://www.waterqualitydata.us/data/provider/NWIS/USGS-NM/USGS-08358400/",413,690,"New Mexico","Socorro County"
"87","FeatureCollection Feature Point",31.8028849,-106.5408218,"NWIS","USGS-NM","USGS New Mexico Water Science Center","USGS-08364000","RIO GRANDE AT EL PASO, TX","Stream","Stream","13030102","https://www.waterqualitydata.us/data/provider/NWIS/USGS-NM/USGS-08364000/",455,828,"Texas","El Paso County"
"88","FeatureCollection Feature Point",37.0786111,-105.7569444,"NWIS","USGS-CO","USGS Colorado Water Science Center","USGS-08251500","RIO GRANDE NEAR LOBATOS, CO","Stream","Stream","13010002","https://www.waterqualitydata.us/data/provider/NWIS/USGS-CO/USGS-08251500/",306,613,"Colorado","Conejos County"
"89","FeatureCollection Feature Point",39.1327605,-109.0270546,"NWIS","USGS-CO","USGS Colorado Water Science Center","USGS-09163500","COLORADO RIVER NEAR COLORADO-UTAH STATE LINE","Stream","Stream","14010005","https://www.waterqualitydata.us/data/provider/NWIS/USGS-CO/USGS-09163500/",394,769,"Colorado","Mesa County"
"90","FeatureCollection Feature Point",35.8745,-106.1424444,"NWIS","USGS-NM","USGS New Mexico Water Science Center","USGS-08313000","RIO GRANDE AT OTOWI BRIDGE, NM","Stream","Stream","13020101","https://www.waterqualitydata.us/data/provider/NWIS/USGS-NM/USGS-08313000/",280,570,"New Mexico","Santa Fe County"
"91","FeatureCollection Feature Point",40.378317,-105.513887,"NWIS","USGS-CO","USGS Colorado Water Science Center","USGS-06733000","BIG THOMPSON RIVER AT ESTES PARK, CO.","Stream","Stream","10190006","https://www.waterqualitydata.us/data/provider/NWIS/USGS-CO/USGS-06733000/",262,518,"Colorado","Larimer County"
"92","FeatureCollection Feature Point",40.3737643,-105.4737131,"NWIS","USGS-CO","USGS Colorado Water Science Center","USGS-06734900","OLYMPUS TUNNEL AT LAKE ESTES, CO.","Stream","Stream","10190006","https://www.waterqualitydata.us/data/provider/NWIS/USGS-CO/USGS-06734900/",396,701,"Colorado","Larimer County"
"93","FeatureCollection Feature Point",40.4149838,-105.250542,"NWIS","USGS-CO","USGS Colorado Water Science Center","USGS-06736700","BIG THOMPSON R ABOVE DILLE TUNNEL, NR DRAKE, CO.","Stream","Stream","10190006","https://www.waterqualitydata.us/data/provider/NWIS/USGS-CO/USGS-06736700/",278,556,"Colorado","Larimer County"
"94","FeatureCollection Feature Point",40.5999823,-105.1688703,"NWIS","USGS-CO","USGS Colorado Water Science Center","USGS-06737500","HORSETOOTH RESERVOIR NEAR FORT COLLINS, CO.","Lake, Reservoir, Impoundment","Lake, Reservoir, Impoundment","10190007","https://www.waterqualitydata.us/data/provider/NWIS/USGS-CO/USGS-06737500/",382,506,"Colorado","Larimer County"
"95","FeatureCollection Feature Point",40.3785946,-105.0610909,"NWIS","USGS-CO","USGS Colorado Water Science Center","USGS-06741510","BIG THOMPSON RIVER AT LOVELAND, CO.","Stream","Stream","10190006","https://www.waterqualitydata.us/data/provider/NWIS/USGS-CO/USGS-06741510/",440,686,"Colorado","Larimer County"
"96","FeatureCollection Feature Point",40.3833167,-105.0297008,"NWIS","USGS-CO","USGS Colorado Water Science Center","USGS-06741520","BIG THOMPSON RIVER BELOW LOVELAND, CO.","Stream","Stream","10190006","https://www.waterqualitydata.us/data/provider/NWIS/USGS-CO/USGS-06741520/",392,676,"Colorado","Larimer County"
"97","FeatureCollection Feature Point",40.324429,-105.2119304,"NWIS","USGS-CO","USGS Colorado Water Science Center","USGS-06742500","CARTER LAKE NEAR BERTHOUD, CO.","Lake, Reservoir, Impoundment","Lake, Reservoir, Impoundment","10190006","https://www.waterqualitydata.us/data/provider/NWIS/USGS-CO/USGS-06742500/",379,503,"Colorado","Larimer County"
"98","FeatureCollection Feature Point",40.5880833,-105.0692222,"NWIS","USGS-CO","USGS Colorado Water Science Center","USGS-06752260","CACHE LA POUDRE RIVER AT FORT COLLINS, CO","Stream","Stream","10190007","https://www.waterqualitydata.us/data/provider/NWIS/USGS-CO/USGS-06752260/",460,514,"Colorado","Larimer County"
"99","FeatureCollection Feature Point",40.327762,-105.5780567,"NWIS","USGS-CO","USGS Colorado Water Science Center","USGS-09013000","ALVA B ADAMS TUN AT E PORTAL, NR ESTES PARK, CO.","Stream","Stream","10190006","https://www.waterqualitydata.us/data/provider/NWIS/USGS-CO/USGS-09013000/",400,727,"Colorado","Larimer County"
"100","FeatureCollection Feature Point",40.1497222,-105.8649,"NWIS","USGS-CO","USGS Colorado Water Science Center","USGS-09018500","LAKE GRANBY NEAR GRANBY, CO.","Lake, Reservoir, Impoundment","Lake, Reservoir, Impoundment","14010001","https://www.waterqualitydata.us/data/provider/NWIS/USGS-CO/USGS-09018500/",419,566,"Colorado","Grand County"
"101","FeatureCollection Feature Point",40.2024844,-106.4225335,"NWIS","USGS-CO","USGS Colorado Water Science Center","USGS-09041090","MUDDY CREEK ABOVE ANTELOPE CREEK NR. KREMMLING, CO","Stream","Stream","14010001","https://www.waterqualitydata.us/data/provider/NWIS/USGS-CO/USGS-09041090/",300,576,"Colorado","Grand County"
"102","FeatureCollection Feature Point",40.1085963,-106.4139212,"NWIS","USGS-CO","USGS Colorado Water Science Center","USGS-09041400","MUDDY CRK BLW WOLFORD MTN RESER. NR KREMMLING, CO","Stream","Stream","14010001","https://www.waterqualitydata.us/data/provider/NWIS/USGS-CO/USGS-09041400/",279,557,"Colorado","Grand County"
"103","FeatureCollection Feature Point",39.6094305,-106.447808,"NWIS","USGS-CO","USGS Colorado Water Science Center","USGS-09066510","GORE CREEK AT MOUTH NEAR MINTURN, CO","Stream","Stream","14010003","https://www.waterqualitydata.us/data/provider/NWIS/USGS-CO/USGS-09066510/",251,501,"Colorado","Eagle County"
"104","FeatureCollection Feature Point",39.6499851,-106.9522665,"NWIS","USGS-CO","USGS Colorado Water Science Center","USGS-09069000","EAGLE RIVER AT GYPSUM, CO","Stream","Stream","14010003","https://www.waterqualitydata.us/data/provider/NWIS/USGS-CO/USGS-09069000/",277,559,"Colorado","Eagle County"
"105","FeatureCollection Feature Point",40.3538729,-105.5841679,"NWIS","USGS-CO","USGS Colorado Water Science Center","USGS-402114105350101","BIG THOMPSON BL MORAINE PARK NR ESTES PARK, CO","Stream","Stream","10190006","https://www.waterqualitydata.us/data/provider/NWIS/USGS-CO/USGS-402114105350101/",326,530,"Colorado","Larimer County"
"106","FeatureCollection Feature Point",40.3791504,-105.5069423,"NWIS","USGS-CO","USGS Colorado Water Science Center","USGS-402245105302300","BIG THOMPSON R BLW SANITATION OUTFLOW ABV LK ESTES","Stream","Stream","10190006","https://www.waterqualitydata.us/data/provider/NWIS/USGS-CO/USGS-402245105302300/",277,554,"Colorado","Larimer County"
"107","FeatureCollection Feature Point",40.3802615,-105.4727742,"NWIS","USGS-CO","USGS Colorado Water Science Center","USGS-402249105282000","BIG THOMPSON R AT WHISPERING PINES NR ESTES PARK","Stream","Stream","10190006","https://www.waterqualitydata.us/data/provider/NWIS/USGS-CO/USGS-402249105282000/",275,550,"Colorado","Larimer County"
"108","FeatureCollection Feature Point",41.496076,-109.4387455,"NWIS","USGS-WY","USGS Wyoming Water Science Center","USGS-09217010","GREEN RIVER BELOW GREEN RIVER, WY","Stream","Stream","14040106","https://www.waterqualitydata.us/data/provider/NWIS/USGS-WY/USGS-09217010/",327,567,"Wyoming","Sweetwater County"
"109","FeatureCollection Feature Point",45.0571972,-105.8783778,"NWIS","USGS-MT","USGS Montana Water Science Center","USGS-06324500","Powder River at Moorhead MT","Stream","Stream","10090207","https://www.waterqualitydata.us/data/provider/NWIS/USGS-MT/USGS-06324500/",517,570,"Montana","Powder River County"
"110","FeatureCollection Feature Point",46.4294361,-105.3103306,"NWIS","USGS-MT","USGS Montana Water Science Center","USGS-06326500","Powder River near Locate MT","Stream","Stream","10090209","https://www.waterqualitydata.us/data/provider/NWIS/USGS-MT/USGS-06326500/",316,524,"Montana","Custer County"
"111","FeatureCollection Feature Point",29.7807569,-101.7559523,"NWIS","USGS-TX","USGS Texas Water Science Center","USGS-08377200","Rio Grande at Foster Rh nr Langtry, TX","Stream","Stream","13040212","https://www.waterqualitydata.us/data/provider/NWIS/USGS-TX/USGS-08377200/",234,504,"Texas","Val Verde County"
"112","FeatureCollection Feature Point",29.8029823,-101.4462223,"NWIS","USGS-TX","USGS Texas Water Science Center","USGS-08447410","Pecos Rv nr Langtry, TX","Stream","Stream","13070012","https://www.waterqualitydata.us/data/provider/NWIS/USGS-TX/USGS-08447410/",257,529,"Texas","Val Verde County"
"113","FeatureCollection Feature Point",38.2663918,-104.7824795,"NWIS","USGS-CO","USGS Colorado Water Science Center","USGS-381559104465500","PUEBLO RESERVOIR SITE 5C","Lake, Reservoir, Impoundment","Lake, Reservoir, Impoundment","11020002","https://www.waterqualitydata.us/data/provider/NWIS/USGS-CO/USGS-381559104465500/",275,525,"Colorado","Pueblo County"
"114","FeatureCollection Feature Point",38.2672251,-104.7316446,"NWIS","USGS-CO","USGS Colorado Water Science Center","USGS-381602104435200","PUEBLO RESERVOIR SITE 7B","Lake, Reservoir, Impoundment","Lake, Reservoir, Impoundment","11020002","https://www.waterqualitydata.us/data/provider/NWIS/USGS-CO/USGS-381602104435200/",283,543,"Colorado","Pueblo County"
"115","FeatureCollection Feature Point",39.7424868,-104.9999817,"NWIS","USGS-CO","USGS Colorado Water Science Center","USGS-06713500","CHERRY CREEK AT DENVER, CO.","Stream","Stream","10190003","https://www.waterqualitydata.us/data/provider/NWIS/USGS-CO/USGS-06713500/",394,647,"Colorado","Denver County"
"116","FeatureCollection Feature Point",40.4119253,-104.5627366,"NWIS","USGS-CO","USGS Colorado Water Science Center","USGS-06754000","SOUTH PLATTE RIVER NEAR KERSEY, CO","Stream","Stream","10190003","https://www.waterqualitydata.us/data/provider/NWIS/USGS-CO/USGS-06754000/",349,588,"Colorado","Weld County"
"117","FeatureCollection Feature Point",41.4886111,-102.6258333,"NWIS","USGS-NE","USGS Nebraska Water Science Center","USGS-06686000","NORTH PLATTE RIVER AT LISCO, NEBR.","Stream","Stream","10180009","https://www.waterqualitydata.us/data/provider/NWIS/USGS-NE/USGS-06686000/",267,507,"Nebraska","Garden County"
"118","FeatureCollection Feature Point",48.1235,-104.4733,"NWIS","USGS-MT","USGS Montana Water Science Center","USGS-06185500","Missouri River near Culbertson MT","Stream","Stream","10060005","https://www.waterqualitydata.us/data/provider/NWIS/USGS-MT/USGS-06185500/",267,529,"Montana","Richland County"
"119","FeatureCollection Feature Point",47.6774139,-104.1554111,"NWIS","USGS-MT","USGS Montana Water Science Center","USGS-06329500","Yellowstone River near Sidney MT","Stream","Stream","10100004","https://www.waterqualitydata.us/data/provider/NWIS/USGS-MT/USGS-06329500/",544,966,"Montana","Richland County"
"120","FeatureCollection Feature Point",48.9900156,-101.9582209,"NWIS","USGS-ND","USGS North Dakota Water Science Center","USGS-05114000","SOURIS RIVER NR SHERWOOD, ND","Stream","Stream","09010008","https://www.waterqualitydata.us/data/provider/NWIS/USGS-ND/USGS-05114000/",476,620,"North Dakota","Renville County"
"121","FeatureCollection Feature Point",48.1597293,-100.7295863,"NWIS","USGS-ND","USGS North Dakota Water Science Center","USGS-05120000","SOURIS RIVER NR VERENDRYE, ND","Stream","Stream","09010003","https://www.waterqualitydata.us/data/provider/NWIS/USGS-ND/USGS-05120000/",403,542,"North Dakota","McHenry County"
"122","FeatureCollection Feature Point",48.9964079,-100.9584889,"NWIS","USGS-ND","USGS North Dakota Water Science Center","USGS-05124000","SOURIS RIVER NR WESTHOPE, ND","Stream","Stream","09010003","https://www.waterqualitydata.us/data/provider/NWIS/USGS-ND/USGS-05124000/",292,531,"North Dakota","Bottineau County"
"123","FeatureCollection Feature Point",47.5022218,-101.4309953,"NWIS","USGS-ND","USGS North Dakota Water Science Center","USGS-06338490","MISSOURI RIVER AT GARRISON DAM, ND","Stream","Stream","10130101","https://www.waterqualitydata.us/data/provider/NWIS/USGS-ND/USGS-06338490/",264,541,"North Dakota","Mercer County"
"124","FeatureCollection Feature Point",44.7038734,-103.8235357,"NWIS","USGS-SD","USGS South Dakota Water Science Center","USGS-06434500","INLET CANAL NEAR BELLE FOURCHE,SD","Stream","Stream","10120202","https://www.waterqualitydata.us/data/provider/NWIS/USGS-SD/USGS-06434500/",258,550,"South Dakota","Butte County"
"125","FeatureCollection Feature Point",44.5130418,-103.1368464,"NWIS","USGS-SD","USGS South Dakota Water Science Center","USGS-06437000","BELLE FOURCHE R NEAR STURGIS,SD","Stream","Stream","10120202","https://www.waterqualitydata.us/data/provider/NWIS/USGS-SD/USGS-06437000/",296,605,"South Dakota","Meade County"
"126","FeatureCollection Feature Point",29.3496858,-95.5824448,"NWIS","USGS-TX","USGS Texas Water Science Center","USGS-08116650","Brazos Rv nr Rosharon, TX","Stream","Stream","12070104","https://www.waterqualitydata.us/data/provider/NWIS/USGS-TX/USGS-08116650/",305,523,"Texas","Fort Bend County"
"127","FeatureCollection Feature Point",25.8767479,-97.454426,"NWIS","USGS-TX","USGS Texas Water Science Center","USGS-08475000","Rio Grande nr Brownsville, TX","Stream","Stream","13090002","https://www.waterqualitydata.us/data/provider/NWIS/USGS-TX/USGS-08475000/",376,768,"Texas","Cameron County"
"128","FeatureCollection Feature Point",34.2334272,-96.9758447,"NWIS","USGS-OK","USGS Oklahoma Water Science Center","USGS-07331000","Washita River near Dickson, OK","Stream","Stream","11130303","https://www.waterqualitydata.us/data/provider/NWIS/USGS-OK/USGS-07331000/",350,655,"Oklahoma","Carter County"
"129","FeatureCollection Feature Point",33.8189912,-96.5633264,"NWIS","USGS-OK","USGS Oklahoma Water Science Center","USGS-07331600","Red Rv at Denison Dam nr Denison, TX","Stream","Stream","11140101","https://www.waterqualitydata.us/data/provider/NWIS/USGS-OK/USGS-07331600/",271,526,"Texas","Grayson County"
"130","FeatureCollection Feature Point",34.1100933,-98.5317234,"NWIS","USGS-TX","USGS Texas Water Science Center","USGS-07308500","Red Rv nr Burkburnett, TX","Stream","Stream","11130102","https://www.waterqualitydata.us/data/provider/NWIS/USGS-TX/USGS-07308500/",322,638,"Texas","Wichita County"
"131","FeatureCollection Feature Point",32.8892921,-96.7566664,"NWIS","USGS-TX","USGS Texas Water Science Center","USGS-08057200","White Rk Ck at Greenville Ave, Dallas, TX","Stream","Stream","12030105","https://www.waterqualitydata.us/data/provider/NWIS/USGS-TX/USGS-08057200/",369,610,"Texas","Dallas County"
"132","FeatureCollection Feature Point",32.7076314,-96.7358319,"NWIS","USGS-TX","USGS Texas Water Science Center","USGS-08057410","Trinity Rv bl Dallas, TX","Stream","Stream","12030105","https://www.waterqualitydata.us/data/provider/NWIS/USGS-TX/USGS-08057410/",625,868,"Texas","Dallas County"
"133","FeatureCollection Feature Point",30.2635417,-97.7713947,"NWIS","USGS-TX","USGS Texas Water Science Center","USGS-08155500","Barton Spgs at Austin, TX","Spring","Spring","12090205","https://www.waterqualitydata.us/data/provider/NWIS/USGS-TX/USGS-08155500/",315,525,"Texas","Travis County"
"134","FeatureCollection Feature Point",29.921333,-95.135764,"NWIS","USGS-TX","USGS Texas Water Science Center","USGS-295516095080801","Lk Houston Site AC nr Houston, TX","Lake, Reservoir, Impoundment","Lake, Reservoir, Impoundment","12040101","https://www.waterqualitydata.us/data/provider/NWIS/USGS-TX/USGS-295516095080801/",306,550,"Texas","Harris County"
"135","FeatureCollection Feature Point",30.3577077,-95.5654987,"NWIS","USGS-TX","USGS Texas Water Science Center","USGS-302127095335501","Lk Conroe Site AC nr Conroe, TX","Lake, Reservoir, Impoundment","Lake, Reservoir, Impoundment","12040101","https://www.waterqualitydata.us/data/provider/NWIS/USGS-TX/USGS-302127095335501/",496,553,"Texas","Montgomery County"
"136","FeatureCollection Feature Point",30.65,-95.0417,"STORET","TCEQMAIN","Texas Commission on Environmental Quality","TCEQMAIN-10899","LK LIVINGSTON NEAR DAM","Reservoir","Lake, Reservoir, Impoundment","12030202","https://www.waterqualitydata.us/data/provider/STORET/TCEQMAIN/TCEQMAIN-10899/",684,684,"",""
"137","FeatureCollection Feature Point",30.8597,-95.3983,"STORET","TCEQMAIN","Texas Commission on Environmental Quality","TCEQMAIN-10914","LAKE LIVINGSTON AT SH 19","Reservoir","Lake, Reservoir, Impoundment","12030202","https://www.waterqualitydata.us/data/provider/STORET/TCEQMAIN/TCEQMAIN-10914/",640,640,"",""
"138","FeatureCollection Feature Point",32.7074,-96.7357,"STORET","TCEQMAIN","Texas Commission on Environmental Quality","TCEQMAIN-10934","TRINITY R AT SOUTH LOOP SH 12","River/Stream","Stream","12030105","https://www.waterqualitydata.us/data/provider/STORET/TCEQMAIN/TCEQMAIN-10934/",544,625,"",""
"139","FeatureCollection Feature Point",29.7556,-95.0917,"STORET","TCEQMAIN","Texas Commission on Environmental Quality","TCEQMAIN-11264","HOUSTON SHIP CHANNEL AT SAN JACINTO PARK","River/Stream","Stream","12040104","https://www.waterqualitydata.us/data/provider/STORET/TCEQMAIN/TCEQMAIN-11264/",538,544,"",""
"140","FeatureCollection Feature Point",29.7472,-95.1681,"STORET","TCEQMAIN","Texas Commission on Environmental Quality","TCEQMAIN-11271","HOUSTON SHIP CHANNEL AT GREENS BAYOU CM 152","River/Stream","Stream","12040104","https://www.waterqualitydata.us/data/provider/STORET/TCEQMAIN/TCEQMAIN-11271/",546,554,"",""
"141","FeatureCollection Feature Point",29.7492,-95.2889,"STORET","TCEQMAIN","Texas Commission on Environmental Quality","TCEQMAIN-11292","HOUSTON SHIP CHANNEL / BUFFALO BAYOU IN TURNING BASIN","River/Stream","Stream","12040104","https://www.waterqualitydata.us/data/provider/STORET/TCEQMAIN/TCEQMAIN-11292/",578,585,"",""
"142","FeatureCollection Feature Point",30.0921,-95.4058,"STORET","TCEQMAIN","Texas Commission on Environmental Quality","TCEQMAIN-11312","SPRING CREEK AT RILEY FUZZEL RD","River/Stream","Stream","12040102","https://www.waterqualitydata.us/data/provider/STORET/TCEQMAIN/TCEQMAIN-11312/",555,600,"",""
"143","FeatureCollection Feature Point",30.0358,-95.4292,"STORET","TCEQMAIN","Texas Commission on Environmental Quality","TCEQMAIN-11328","CYPRESS CREEK AT IH 45","River/Stream","Stream","12040102","https://www.waterqualitydata.us/data/provider/STORET/TCEQMAIN/TCEQMAIN-11328/",594,656,"",""
"144","FeatureCollection Feature Point",31.7859,-97.5675,"STORET","TCEQMAIN","Texas Commission on Environmental Quality","TCEQMAIN-11956","NORTH BOSQUE RIVER AT FM 219","River/Stream","Stream","12060204","https://www.waterqualitydata.us/data/provider/STORET/TCEQMAIN/TCEQMAIN-11956/",626,629,"",""
"145","FeatureCollection Feature Point",31.9772,-98.035,"STORET","TCEQMAIN","Texas Commission on Environmental Quality","TCEQMAIN-11961","NORTH BOSQUE RIVER AT US 281","River/Stream","Stream","12060204","https://www.waterqualitydata.us/data/provider/STORET/TCEQMAIN/TCEQMAIN-11961/",587,598,"",""
"146","FeatureCollection Feature Point",32.1931,-98.184,"STORET","TCEQMAIN","Texas Commission on Environmental Quality","TCEQMAIN-11963","NORTH BOSQUE RIVER AT CR 454","River/Stream","Stream","12060204","https://www.waterqualitydata.us/data/provider/STORET/TCEQMAIN/TCEQMAIN-11963/",600,600,"",""
"147","FeatureCollection Feature Point",32.0412,-96.2075,"STORET","TCEQMAIN","Texas Commission on Environmental Quality","TCEQMAIN-15170","RICHLAND-CHAMBERS RESERVOIR","Reservoir","Lake, Reservoir, Impoundment","12030109","https://www.waterqualitydata.us/data/provider/STORET/TCEQMAIN/TCEQMAIN-15170/",508,508,"",""
"148","FeatureCollection Feature Point",37.8830674,-97.4244864,"NWIS","USGS-KS","USGS Kansas Water Science Center","USGS-07144100","L ARKANSAS R NR SEDGWICK, KS","Stream","Stream","11030012","https://www.waterqualitydata.us/data/provider/NWIS/USGS-KS/USGS-07144100/",705,870,"Kansas","Sedgwick County"
"149","FeatureCollection Feature Point",37.8625129,-98.0139449,"NWIS","USGS-KS","USGS Kansas Water Science Center","USGS-07144780","NF NINNESCAH R AB CHENEY RE, KS","Stream","Stream","11030014","https://www.waterqualitydata.us/data/provider/NWIS/USGS-KS/USGS-07144780/",283,562,"Kansas","Reno County"
"150","FeatureCollection Feature Point",37.726123,-97.7942177,"NWIS","USGS-KS","USGS Kansas Water Science Center","USGS-07144790","CHENEY RE NR CHENEY, KS","Lake, Reservoir, Impoundment","Lake, Reservoir, Impoundment","11030014","https://www.waterqualitydata.us/data/provider/NWIS/USGS-KS/USGS-07144790/",334,646,"Kansas","Sedgwick County"
"151","FeatureCollection Feature Point",35.6169933,-98.0653316,"NWIS","USGS-OK","USGS Oklahoma Water Science Center","USGS-07239450","North Canadian River near Calumet, OK","Stream","Stream","11100301","https://www.waterqualitydata.us/data/provider/NWIS/USGS-OK/USGS-07239450/",416,622,"Oklahoma","Canadian County"
"152","FeatureCollection Feature Point",35.4786685,-97.6633752,"NWIS","USGS-OK","USGS Oklahoma Water Science Center","USGS-07241000","North Canadian River blw Lk Overholser nr OKC, OK","Stream","Stream","11100301","https://www.waterqualitydata.us/data/provider/NWIS/USGS-OK/USGS-07241000/",386,594,"Oklahoma","Oklahoma County"
"153","FeatureCollection Feature Point",35.5656147,-97.367258,"NWIS","USGS-OK","USGS Oklahoma Water Science Center","USGS-07241520","North Canadian River at Britton Rd at OKC, OK","Stream","Stream","11100302","https://www.waterqualitydata.us/data/provider/NWIS/USGS-OK/USGS-07241520/",381,588,"Oklahoma","Oklahoma County"
"154","FeatureCollection Feature Point",35.5003412,-97.1939194,"NWIS","USGS-OK","USGS Oklahoma Water Science Center","USGS-07241550","North Canadian River near Harrah, OK","Stream","Stream","11100302","https://www.waterqualitydata.us/data/provider/NWIS/USGS-OK/USGS-07241550/",1015,1380,"Oklahoma","Oklahoma County"
"155","FeatureCollection Feature Point",36.2796389,-95.071,"STORET","OKCONCOM_WQX","Oklahoma Conservation Commission","OKCONCOM_WQX-OK121600-02-0070F","Little Saline Creek","River/Stream","Stream","11070209","https://www.waterqualitydata.us/data/provider/STORET/OKCONCOM_WQX/OKCONCOM_WQX-OK121600-02-0070F/",539,539,"Oklahoma","Mayes County"
"156","FeatureCollection Feature Point",36.3553,-99.0765,"STORET","OKDAFF","Oklahoma Dept. of Agriculture, Food and Forestry","OKDAFF-1489","Hanor Roberts Ranch","Well","Well","11050001","https://www.waterqualitydata.us/data/provider/STORET/OKDAFF/OKDAFF-1489/",66,534,"Oklahoma","Woodward County"
"157","FeatureCollection Feature Point",41.2588874,-95.9225138,"NWIS","USGS-IA","USGS Iowa Water Science Center","USGS-06610000","Missouri River at Omaha, NE","Stream","Stream","10230006","https://www.waterqualitydata.us/data/provider/NWIS/USGS-IA/USGS-06610000/",396,826,"Nebraska","Douglas County"
"158","FeatureCollection Feature Point",42.6894444,-99.6788889,"NWIS","USGS-NE","USGS Nebraska Water Science Center","USGS-06463500","Long Pine Creek near Riverview, Nebr.","Stream","Stream","10150004","https://www.waterqualitydata.us/data/provider/NWIS/USGS-NE/USGS-06463500/",259,517,"Nebraska","Brown County"
"159","FeatureCollection Feature Point",40.8744567,-98.2820044,"NWIS","USGS-NE","USGS Nebraska Water Science Center","USGS-06770500","Platte River near Grand Island, Nebr.","Stream","Stream","10200101","https://www.waterqualitydata.us/data/provider/NWIS/USGS-NE/USGS-06770500/",275,532,"Nebraska","Merrick County"
"160","FeatureCollection Feature Point",41.3683333,-97.4952778,"NWIS","USGS-NE","USGS Nebraska Water Science Center","USGS-06774000","Platte River near Duncan, Nebr.","Stream","Stream","10200103","https://www.waterqualitydata.us/data/provider/NWIS/USGS-NE/USGS-06774000/",292,557,"Nebraska","Platte County"
"161","FeatureCollection Feature Point",41.5611667,-96.5408333,"NWIS","USGS-NE","USGS Nebraska Water Science Center","USGS-06800000","Maple Creek near Nickerson, Nebr.","Stream","Stream","10220003","https://www.waterqualitydata.us/data/provider/NWIS/USGS-NE/USGS-06800000/",507,820,"Nebraska","Dodge County"
"162","FeatureCollection Feature Point",41.2933333,-96.2838889,"NWIS","USGS-NE","USGS Nebraska Water Science Center","USGS-06800500","Elkhorn River at Waterloo, Nebr.","Stream","Stream","10220003","https://www.waterqualitydata.us/data/provider/NWIS/USGS-NE/USGS-06800500/",542,967,"Nebraska","Douglas County"
"163","FeatureCollection Feature Point",40.9049996,-96.5861224,"NWIS","USGS-NE","USGS Nebraska Water Science Center","USGS-06803525","SALT CR BL STEVENS CR NR WAVERLY NEBR","Stream","Stream","10200203","https://www.waterqualitydata.us/data/provider/NWIS/USGS-NE/USGS-06803525/",597,761,"Nebraska","Lancaster County"
"164","FeatureCollection Feature Point",41.0152778,-96.1577778,"NWIS","USGS-NE","USGS Nebraska Water Science Center","USGS-06805500","Platte River at Louisville, Nebr.","Stream","Stream","10200202","https://www.waterqualitydata.us/data/provider/NWIS/USGS-NE/USGS-06805500/",716,1228,"Nebraska","Sarpy County"
"165","FeatureCollection Feature Point",46.6316329,-97.000643,"NWIS","USGS-ND","USGS North Dakota Water Science Center","USGS-05059000","SHEYENNE RIVER NEAR KINDRED, ND","Stream","Stream","09020204","https://www.waterqualitydata.us/data/provider/NWIS/USGS-ND/USGS-05059000/",227,501,"North Dakota","Cass County"
"166","FeatureCollection Feature Point",47.9269234,-97.0292435,"NWIS","USGS-ND","USGS North Dakota Water Science Center","USGS-05082500","RED RIVER OF THE NORTH AT GRAND FORKS, ND","Stream","Stream","09020301","https://www.waterqualitydata.us/data/provider/NWIS/USGS-ND/USGS-05082500/",322,594,"North Dakota","Grand Forks County"
"167","FeatureCollection Feature Point",48.413972,-97.107222,"STORET","MNPCA","Minnesota Pollution Control Agency - Ambient Surface Water","MNPCA-S000-185","SNAKE RIVER AT BRIDGE ON MN-220 N OF BIG WOODS","River/Stream","Stream","09020309","https://www.waterqualitydata.us/data/provider/STORET/MNPCA/MNPCA-S000-185/",512,512,"Minnesota","Marshall County"
"168","FeatureCollection Feature Point",45.203111,-96.0205,"STORET","MNPCA","Minnesota Pollution Control Agency - Ambient Surface Water","MNPCA-S000-195","POMME DE TERRE R UPSTR OF MN-119 / MN-7 / US-59 AT APPLETON","River/Stream","Stream","07020002","https://www.waterqualitydata.us/data/provider/STORET/MNPCA/MNPCA-S000-195/",637,638,"Minnesota","Swift County"
"169","FeatureCollection Feature Point",44.583889,-95.0475,"STORET","MNPCA","Minnesota Pollution Control Agency - Ambient Surface Water","MNPCA-S000-666","BEAVER CK AT CSAH-2 2.5 MI NE OF NORTH REDWOOD","River/Stream","Stream","07020004","https://www.waterqualitydata.us/data/provider/STORET/MNPCA/MNPCA-S000-666/",545,545,"Minnesota","Renville County"
"170","FeatureCollection Feature Point",44.523694,-95.1715,"STORET","MNPCA","Minnesota Pollution Control Agency - Ambient Surface Water","MNPCA-S001-679","REDWOOD R AT CSAH-17, 3 MILES SW OF REDWOOD FALLS","River/Stream","Stream","07020006","https://www.waterqualitydata.us/data/provider/STORET/MNPCA/MNPCA-S001-679/",600,600,"Minnesota","Redwood County"
"171","FeatureCollection Feature Point",44.7622,-95.4288,"STORET","MNPCA","Minnesota Pollution Control Agency - Ambient Surface Water","MNPCA-S002-012","HAWK CK AT CR 52 BR, 6.5 MI SE OF GRANITE FALLS","River/Stream","Stream","07020004","https://www.waterqualitydata.us/data/provider/STORET/MNPCA/MNPCA-S002-012/",612,615,"Minnesota","Renville County"
"172","FeatureCollection Feature Point",48.1872,-96.1734,"STORET","MNPCA","Minnesota Pollution Control Agency - Ambient Surface Water","MNPCA-S002-079","THIEF R, 1 MI E CSAH-32, HILLYER BRG, 4 MI N THIEF R FALLS","River/Stream","Stream","09020304","https://www.waterqualitydata.us/data/provider/STORET/MNPCA/MNPCA-S002-079/",503,503,"Minnesota","Marshall County"
"173","FeatureCollection Feature Point",47.886071,-96.27691,"STORET","MNPCA","Minnesota Pollution Control Agency - Ambient Surface Water","MNPCA-S002-118","CLEARWATER R AT KLONDIKE BRIDGE/BOTTINEAU AVE RED LAKE FALLS","River/Stream","Stream","09020305","https://www.waterqualitydata.us/data/provider/STORET/MNPCA/MNPCA-S002-118/",583,583,"Minnesota","Red Lake County"
"174","FeatureCollection Feature Point",44.8697,-95.4831,"STORET","MNPCA","Minnesota Pollution Control Agency - Ambient Surface Water","MNPCA-S002-148","HAWK CK, AT MN-23, 2.2 MI SW OF MAYNARD","River/Stream","Stream","07020004","https://www.waterqualitydata.us/data/provider/STORET/MNPCA/MNPCA-S002-148/",546,546,"Minnesota","Chippewa County"
"175","FeatureCollection Feature Point",46.8009,-95.8768,"STORET","MNPCA","Minnesota Pollution Control Agency - Ambient Surface Water","MNPCA-S002-158","DITCH 14 @ OUT FROM ST CLAIR LK AT US-59 1-3/4 MI SW DET LKS","River/Stream","Stream","09020103","https://www.waterqualitydata.us/data/provider/STORET/MNPCA/MNPCA-S002-158/",659,659,"Minnesota","Becker County"
"176","FeatureCollection Feature Point",46.789,-95.8687,"STORET","MNPCA","Minnesota Pollution Control Agency - Ambient Surface Water","MNPCA-S002-160","DITCH 14 AT OUTLET TO PELICAN R 2 1/4 MI SW OF DETROIT LAKES","River/Stream","Stream","09020103","https://www.waterqualitydata.us/data/provider/STORET/MNPCA/MNPCA-S002-160/",912,912,"Minnesota","Becker County"
"177","FeatureCollection Feature Point",46.8913,-95.8661,"STORET","MNPCA","Minnesota Pollution Control Agency - Ambient Surface Water","MNPCA-S002-163","CAMPBELL CK AT CR-149, 5 1/4 MI N OF DETROIT LAKES","River/Stream","Stream","09020103","https://www.waterqualitydata.us/data/provider/STORET/MNPCA/MNPCA-S002-163/",524,524,"Minnesota","Becker County"
"178","FeatureCollection Feature Point",46.8781,-95.8398,"STORET","MNPCA","Minnesota Pollution Control Agency - Ambient Surface Water","MNPCA-S002-166","UNNAMED CK AT RICHWOOD RD CULVERT 4 1/4 MI N DETROIT LAKES","River/Stream","Stream","09020103","https://www.waterqualitydata.us/data/provider/STORET/MNPCA/MNPCA-S002-166/",567,567,"Minnesota","Becker County"
"179","FeatureCollection Feature Point",46.7893,-95.8675,"STORET","MNPCA","Minnesota Pollution Control Agency - Ambient Surface Water","MNPCA-S002-172","PELICAN R @ OLT FROM DETROIT LK @ CSAH-22, 2 MI SW DET LKS","River/Stream","Stream","09020103","https://www.waterqualitydata.us/data/provider/STORET/MNPCA/MNPCA-S002-172/",813,813,"Minnesota","Becker County"
"180","FeatureCollection Feature Point",46.7819,-95.8831,"STORET","MNPCA","Minnesota Pollution Control Agency - Ambient Surface Water","MNPCA-S002-173","PELICAN R @ OLT FROM MUSKRAT LK DUNTON LOCKS 3 MI SW DET LKS","River/Stream","Stream","09020103","https://www.waterqualitydata.us/data/provider/STORET/MNPCA/MNPCA-S002-173/",948,948,"Minnesota","Becker County"
"181","FeatureCollection Feature Point",46.7574,-95.8998,"STORET","MNPCA","Minnesota Pollution Control Agency - Ambient Surface Water","MNPCA-S002-174","PELICAN R @ OUTLET FROM LAKE SALLIE @ CSAH-22 AT SHOREHAM","River/Stream","Stream","09020103","https://www.waterqualitydata.us/data/provider/STORET/MNPCA/MNPCA-S002-174/",631,631,"Minnesota","Becker County"
"182","FeatureCollection Feature Point",45.108657,-95.799143,"STORET","MNPCA","Minnesota Pollution Control Agency - Ambient Surface Water","MNPCA-S002-203","CHIPPEWA R, AT MN-40, 5.5 MI E OF MILAN","River/Stream","Stream","07020005","https://www.waterqualitydata.us/data/provider/STORET/MNPCA/MNPCA-S002-203/",566,566,"Minnesota","Chippewa County"
"183","FeatureCollection Feature Point",33.5963889,-92.8180556,"NWIS","USGS-AR","USGS Arkansas Water Science Center","USGS-07362000","Ouachita River at Camden, AR","Stream","Stream","08040102","https://www.waterqualitydata.us/data/provider/NWIS/USGS-AR/USGS-07362000/",272,555,"Arkansas","Ouachita County"
"184","FeatureCollection Feature Point",31.3129602,-92.4429148,"NWIS","USGS-LA","USGS Louisiana Water Science Center","USGS-07355500","Red River at Alexandria, LA","Stream","Stream","08040301","https://www.waterqualitydata.us/data/provider/NWIS/USGS-LA/USGS-07355500/",424,699,"Louisiana","Rapides Parish"
"185","FeatureCollection Feature Point",30.7585166,-91.3959464,"NWIS","USGS-LA","USGS Louisiana Water Science Center","USGS-07373420","MISSISSIPPI R NR ST. FRANCISVILLE, LA","Stream","Stream","08070100","https://www.waterqualitydata.us/data/provider/NWIS/USGS-LA/USGS-07373420/",605,1202,"Louisiana","West Feliciana Parish"
"186","FeatureCollection Feature Point",30.690743,-91.7362262,"NWIS","USGS-LA","USGS Louisiana Water Science Center","USGS-07381495","(COE) Atchafalaya River at Melville, LA","Stream","Stream","08080101","https://www.waterqualitydata.us/data/provider/NWIS/USGS-LA/USGS-07381495/",565,1146,"Louisiana","Pointe Coupee Parish"
"187","FeatureCollection Feature Point",29.6979864,-91.3728855,"NWIS","USGS-LA","USGS Louisiana Water Science Center","USGS-07381590","Wax Lake Outlet at Calumet, LA","Stream","Stream","08080101","https://www.waterqualitydata.us/data/provider/NWIS/USGS-LA/USGS-07381590/",455,712,"Louisiana","St. Mary Parish"
"188","FeatureCollection Feature Point",29.6928194,-91.2119368,"NWIS","USGS-LA","USGS Louisiana Water Science Center","USGS-07381600","Lower Atchafalaya River at Morgan City, LA","Stream","Stream","08080101","https://www.waterqualitydata.us/data/provider/NWIS/USGS-LA/USGS-07381600/",549,978,"Louisiana","St. Mary Parish"
"189","FeatureCollection Feature Point",33.3966667,-90.8477778,"NWIS","USGS-MS","USGS Mississippi Water Science Center","USGS-07288650","BOGUE PHALIA NR LELAND, MS","Stream","Stream","08030207","https://www.waterqualitydata.us/data/provider/NWIS/USGS-MS/USGS-07288650/",413,681,"Mississippi","Washington County"
"190","FeatureCollection Feature Point",32.4441667,-90.9141667,"NWIS","USGS-MS","USGS Mississippi Water Science Center","USGS-07288955","YAZOO RIVER BL STEELE BAYOU NR LONG LAKE, MS","Stream","Stream","08030208","https://www.waterqualitydata.us/data/provider/NWIS/USGS-MS/USGS-07288955/",533,848,"Mississippi","Warren County"
"191","FeatureCollection Feature Point",33.5723611,-90.7499722,"NWIS","USGS-MS","USGS Mississippi Water Science Center","USGS-333420090445900","PORTER BAYOU TRIB NO 1 NW OF FRAZIER, MS","Stream","Stream","08030207","https://www.waterqualitydata.us/data/provider/NWIS/USGS-MS/USGS-333420090445900/",530,530,"Mississippi","Sunflower County"
"192","FeatureCollection Feature Point",34.2344444,-90.6488889,"NWIS","USGS-MS","USGS Mississippi Water Science Center","USGS-341404090385600","OVERCUP SLOUGH TRIBUTARY NO 1 NEAR FARRELL, MS","Stream","Stream","08030207","https://www.waterqualitydata.us/data/provider/NWIS/USGS-MS/USGS-341404090385600/",515,515,"Mississippi","Coahoma County"
"193","FeatureCollection Feature Point",34.2638889,-90.6536111,"NWIS","USGS-MS","USGS Mississippi Water Science Center","USGS-341550090391300","OVERCUP SLOUGH TRIBUTARY NO 2 NEAR FARRELL, MS","Stream","Stream","08030207","https://www.waterqualitydata.us/data/provider/NWIS/USGS-MS/USGS-341550090391300/",563,563,"Mississippi","Coahoma County"
"194","FeatureCollection Feature Point",35.1447222,-90.8780556,"NWIS","USGS-AR","USGS Arkansas Water Science Center","USGS-07047942","LAnguille River near Colt, AR","Stream","Stream","08020205","https://www.waterqualitydata.us/data/provider/NWIS/USGS-AR/USGS-07047942/",279,502,"Arkansas","St. Francis County"
"195","FeatureCollection Feature Point",36.0538889,-94.0830556,"NWIS","USGS-AR","USGS Arkansas Water Science Center","USGS-07048550","West Fork White River east of Fayetteville, AR","Stream","Stream","11010001","https://www.waterqualitydata.us/data/provider/NWIS/USGS-AR/USGS-07048550/",368,522,"Arkansas","Washington County"
"196","FeatureCollection Feature Point",36.1058333,-94.0111111,"NWIS","USGS-AR","USGS Arkansas Water Science Center","USGS-07048700","White River near Goshen, AR","Stream","Stream","11010001","https://www.waterqualitydata.us/data/provider/NWIS/USGS-AR/USGS-07048700/",538,651,"Arkansas","Washington County"
"197","FeatureCollection Feature Point",36.2592424,-94.0690902,"NWIS","USGS-AR","USGS Arkansas Water Science Center","USGS-07049200","Beaver Lake near Lowell","Lake, Reservoir, Impoundment","Lake, Reservoir, Impoundment","11010001","https://www.waterqualitydata.us/data/provider/NWIS/USGS-AR/USGS-07049200/",429,575,"Arkansas","Benton County"
"198","FeatureCollection Feature Point",36.3322963,-94.0190894,"NWIS","USGS-AR","USGS Arkansas Water Science Center","USGS-07049500","Beaver Lake @ Hwy 12 bridge near Rogers, AR","Lake, Reservoir, Impoundment","Lake, Reservoir, Impoundment","11010001","https://www.waterqualitydata.us/data/provider/NWIS/USGS-AR/USGS-07049500/",440,585,"Arkansas","Benton County"
"199","FeatureCollection Feature Point",36.4209051,-93.8474187,"NWIS","USGS-AR","USGS Arkansas Water Science Center","USGS-07049690","Beaver Lake near Eureka Springs, AR","Lake, Reservoir, Impoundment","Lake, Reservoir, Impoundment","11010001","https://www.waterqualitydata.us/data/provider/NWIS/USGS-AR/USGS-07049690/",460,600,"Arkansas","Carroll County"
"200","FeatureCollection Feature Point",35.9916667,-92.2138889,"NWIS","USGS-AR","USGS Arkansas Water Science Center","USGS-07060710","North Sylamore Creek near Fifty Six, AR","Stream","Stream","11010004","https://www.waterqualitydata.us/data/provider/NWIS/USGS-AR/USGS-07060710/",419,655,"Arkansas","Stone County"
"201","FeatureCollection Feature Point",35.2697222,-91.2363889,"NWIS","USGS-AR","USGS Arkansas Water Science Center","USGS-07077500","Cache River at Patterson, AR","Stream","Stream","08020302","https://www.waterqualitydata.us/data/provider/NWIS/USGS-AR/USGS-07077500/",314,563,"Arkansas","Woodruff County"
"202","FeatureCollection Feature Point",35.1625,-94.4069444,"NWIS","USGS-AR","USGS Arkansas Water Science Center","USGS-07249400","James Fork near Hackett, AR","Stream","Stream","11110105","https://www.waterqualitydata.us/data/provider/NWIS/USGS-AR/USGS-07249400/",348,533,"Arkansas","Sebastian County"
"203","FeatureCollection Feature Point",35.3488889,-94.2983333,"NWIS","USGS-AR","USGS Arkansas Water Science Center","USGS-07250550","AR River at James W. Trimble L&D nr Van Buren, AR","Stream","Stream","11110201","https://www.waterqualitydata.us/data/provider/NWIS/USGS-AR/USGS-07250550/",352,651,"Arkansas","Sebastian County"
"204","FeatureCollection Feature Point",34.6811111,-92.1513889,"NWIS","USGS-AR","USGS Arkansas Water Science Center","USGS-07263620","AR River@David D Terry L&D below Little Rock, AR","Stream","Stream","11110207","https://www.waterqualitydata.us/data/provider/NWIS/USGS-AR/USGS-07263620/",525,1014,"Arkansas","Pulaski County"
"205","FeatureCollection Feature Point",38.9833375,-94.9646893,"NWIS","USGS-KS","USGS Kansas Water Science Center","USGS-06892350","KANSAS R AT DESOTO, KS","Stream","Stream","10270104","https://www.waterqualitydata.us/data/provider/NWIS/USGS-KS/USGS-06892350/",409,780,"Kansas","Leavenworth County"
"206","FeatureCollection Feature Point",39.0088056,-90.9775278,"NWIS","USGS-MO","USGS Missouri Water Science Center","USGS-05514500","Cuivre River near Troy, MO","Stream","Stream","07110008","https://www.waterqualitydata.us/data/provider/NWIS/USGS-MO/USGS-05514500/",273,501,"Missouri","Lincoln County"
"207","FeatureCollection Feature Point",38.9511595,-90.3712256,"NWIS","USGS-MO","USGS Missouri Water Science Center","USGS-05587455","MISSISSIPPI RIVER BELOW GRAFTON, IL","Stream","Stream","07110009","https://www.waterqualitydata.us/data/provider/NWIS/USGS-MO/USGS-05587455/",359,714,"Illinois","Jersey County"
"208","FeatureCollection Feature Point",38.0558611,-94.1454167,"NWIS","USGS-MO","USGS Missouri Water Science Center","USGS-06918070","Osage River above Schell City, MO","Stream","Stream","10290105","https://www.waterqualitydata.us/data/provider/NWIS/USGS-MO/USGS-06918070/",251,522,"Missouri","Bates County"
"209","FeatureCollection Feature Point",37.3986554,-93.4101947,"NWIS","USGS-MO","USGS Missouri Water Science Center","USGS-06918600","LITTLE SAC RIVER NEAR WALNUT GROVE, MO","Stream","Stream","10290106","https://www.waterqualitydata.us/data/provider/NWIS/USGS-MO/USGS-06918600/",319,575,"Missouri","Greene County"
"210","FeatureCollection Feature Point",38.4214444,-92.20825,"NWIS","USGS-MO","USGS Missouri Water Science Center","USGS-06926510","Osage River below St. Thomas, MO","Stream","Stream","10290111","https://www.waterqualitydata.us/data/provider/NWIS/USGS-MO/USGS-06926510/",322,653,"Missouri","Cole County"
"211","FeatureCollection Feature Point",37.848096,-92.0623858,"NWIS","USGS-MO","USGS Missouri Water Science Center","USGS-06930450","Big Piney River at Devils Elbow, MO","Stream","Stream","10290202","https://www.waterqualitydata.us/data/provider/NWIS/USGS-MO/USGS-06930450/",341,510,"Missouri","Pulaski County"
"212","FeatureCollection Feature Point",37.9200403,-91.9759959,"NWIS","USGS-MO","USGS Missouri Water Science Center","USGS-06930800","Gasconade River above Jerome, MO","Stream","Stream","10290203","https://www.waterqualitydata.us/data/provider/NWIS/USGS-MO/USGS-06930800/",450,871,"Missouri","Phelps County"
"213","FeatureCollection Feature Point",38.7098056,-91.4385,"NWIS","USGS-MO","USGS Missouri Water Science Center","USGS-06934500","Missouri River at Hermann, MO","Stream","Stream","10300200","https://www.waterqualitydata.us/data/provider/NWIS/USGS-MO/USGS-06934500/",637,1267,"Missouri","Montgomery County"
"214","FeatureCollection Feature Point",38.1585278,-91.1084722,"NWIS","USGS-MO","USGS Missouri Water Science Center","USGS-07014500","Meramec River near Sullivan, MO","Stream","Stream","07140102","https://www.waterqualitydata.us/data/provider/NWIS/USGS-MO/USGS-07014500/",630,960,"Missouri","Crawford County"
"215","FeatureCollection Feature Point",38.431996,-91.0198653,"NWIS","USGS-MO","USGS Missouri Water Science Center","USGS-07016400","Bourbeuse River above Union, MO","Stream","Stream","07140103","https://www.waterqualitydata.us/data/provider/NWIS/USGS-MO/USGS-07016400/",415,664,"Missouri","Franklin County"
"216","FeatureCollection Feature Point",38.4628317,-90.4148419,"NWIS","USGS-MO","USGS Missouri Water Science Center","USGS-07019280","Meramec River at Paulina Hills, MO","Stream","Stream","07140102","https://www.waterqualitydata.us/data/provider/NWIS/USGS-MO/USGS-07019280/",599,931,"Missouri","Jefferson County"
"217","FeatureCollection Feature Point",36.0903463,-90.0798153,"NWIS","USGS-MO","USGS Missouri Water Science Center","USGS-07046250","Little River Ditches near Rives, MO","Stream","Stream","08020204","https://www.waterqualitydata.us/data/provider/NWIS/USGS-MO/USGS-07046250/",318,570,"Missouri","Dunklin County"
"218","FeatureCollection Feature Point",37.0065833,-93.3646667,"NWIS","USGS-MO","USGS Missouri Water Science Center","USGS-07052250","James River near Boaz, MO","Stream","Stream","11010002","https://www.waterqualitydata.us/data/provider/NWIS/USGS-MO/USGS-07052250/",403,627,"Missouri","Christian County"
"219","FeatureCollection Feature Point",36.6358955,-93.2146255,"NWIS","USGS-MO","USGS Missouri Water Science Center","USGS-07053700","Lake Taneycomo at Branson, MO","Lake, Reservoir, Impoundment","Lake, Reservoir, Impoundment","11010003","https://www.waterqualitydata.us/data/provider/NWIS/USGS-MO/USGS-07053700/",389,559,"Missouri","Taney County"
"220","FeatureCollection Feature Point",36.6220029,-90.8476225,"NWIS","USGS-MO","USGS Missouri Water Science Center","USGS-07068000","Current River at Doniphan, MO","Stream","Stream","11010008","https://www.waterqualitydata.us/data/provider/NWIS/USGS-MO/USGS-07068000/",419,675,"Missouri","Ripley County"
"221","FeatureCollection Feature Point",37.1556146,-94.6030068,"NWIS","USGS-MO","USGS Missouri Water Science Center","USGS-07186480","Center Creek near Smithfield, MO","Stream","Stream","11070207","https://www.waterqualitydata.us/data/provider/NWIS/USGS-MO/USGS-07186480/",396,647,"Missouri","Jasper County"
"222","FeatureCollection Feature Point",36.6314613,-94.5868886,"NWIS","USGS-OK","USGS Oklahoma Water Science Center","USGS-07189000","Elk River near Tiff City, Mo","Stream","Stream","11070208","https://www.waterqualitydata.us/data/provider/NWIS/USGS-OK/USGS-07189000/",593,974,"Missouri","McDonald County"
"223","FeatureCollection Feature Point",36.3420235,-94.58772,"NWIS","USGS-OK","USGS Oklahoma Water Science Center","USGS-07191179","Spavinaw Creek near Cherokee City, AR","Stream","Stream","11070209","https://www.waterqualitydata.us/data/provider/NWIS/USGS-OK/USGS-07191179/",344,508,"Arkansas","Benton County"
"224","FeatureCollection Feature Point",36.3225808,-94.6852238,"NWIS","USGS-OK","USGS Oklahoma Water Science Center","USGS-071912213","Spavinaw Creek near Colcord, OK","Stream","Stream","11070209","https://www.waterqualitydata.us/data/provider/NWIS/USGS-OK/USGS-071912213/",349,527,"Oklahoma","Delaware County"
"225","FeatureCollection Feature Point",36.3553592,-94.7763388,"NWIS","USGS-OK","USGS Oklahoma Water Science Center","USGS-07191222","Beaty Creek near Jay, OK","Stream","Stream","11070209","https://www.waterqualitydata.us/data/provider/NWIS/USGS-OK/USGS-07191222/",346,516,"Oklahoma","Delaware County"
"226","FeatureCollection Feature Point",36.1300819,-94.5721645,"NWIS","USGS-OK","USGS Oklahoma Water Science Center","USGS-07195500","Illinois River near Watts, OK","Stream","Stream","11110103","https://www.waterqualitydata.us/data/provider/NWIS/USGS-OK/USGS-07195500/",415,743,"Oklahoma","Adair County"
"227","FeatureCollection Feature Point",36.1864724,-94.7068913,"NWIS","USGS-OK","USGS Oklahoma Water Science Center","USGS-07196000","Flint Creek near Kansas, OK","Stream","Stream","11110103","https://www.waterqualitydata.us/data/provider/NWIS/USGS-OK/USGS-07196000/",345,641,"Oklahoma","Delaware County"
"228","FeatureCollection Feature Point",36.1042527,-94.7827283,"NWIS","USGS-OK","USGS Oklahoma Water Science Center","USGS-07196090","Illinois River at Chewey, OK","Stream","Stream","11110103","https://www.waterqualitydata.us/data/provider/NWIS/USGS-OK/USGS-07196090/",280,560,"Oklahoma","Adair County"
"229","FeatureCollection Feature Point",35.9255472,-94.9217028,"NWIS","USGS-OK","USGS Oklahoma Water Science Center","USGS-07196500","Illinois River near Tahlequah, OK","Stream","Stream","11110103","https://www.waterqualitydata.us/data/provider/NWIS/USGS-OK/USGS-07196500/",388,731,"Oklahoma","Cherokee County"
"230","FeatureCollection Feature Point",35.9216222,-94.8372472,"NWIS","USGS-OK","USGS Oklahoma Water Science Center","USGS-07197000","Baron Fork at Eldon, OK","Stream","Stream","11110103","https://www.waterqualitydata.us/data/provider/NWIS/USGS-OK/USGS-07197000/",347,651,"Oklahoma","Cherokee County"
"231","FeatureCollection Feature Point",36.3704,-94.7191,"STORET","OKCONCOM_WQX","Oklahoma Conservation Commission","OKCONCOM_WQX-OK121600-05-0160F","Beaty Creek:  Upper @ Betty C.","River/Stream","Stream","11070209","https://www.waterqualitydata.us/data/provider/STORET/OKCONCOM_WQX/OKCONCOM_WQX-OK121600-05-0160F/",540,543,"Oklahoma","Delaware County"
"232","FeatureCollection Feature Point",41.7805864,-90.252073,"NWIS","USGS-IA","USGS Iowa Water Science Center","USGS-05420500","Mississippi River at Clinton, IA","Stream","Stream","07080101","https://www.waterqualitydata.us/data/provider/NWIS/USGS-IA/USGS-05420500/",482,980,"Iowa","Clinton County"
"233","FeatureCollection Feature Point",42.3150833,-93.1520556,"NWIS","USGS-IA","USGS Iowa Water Science Center","USGS-05451210","South Fork Iowa River NE of New Providence, IA","Stream","Stream","07080207","https://www.waterqualitydata.us/data/provider/NWIS/USGS-IA/USGS-05451210/",424,684,"Iowa","Hardin County"
"234","FeatureCollection Feature Point",41.1780861,-91.1820939,"NWIS","USGS-IA","USGS Iowa Water Science Center","USGS-05465500","Iowa River at Wapello, IA","Stream","Stream","07080209","https://www.waterqualitydata.us/data/provider/NWIS/USGS-IA/USGS-05465500/",492,949,"Iowa","Louisa County"
"235","FeatureCollection Feature Point",40.7536504,-91.2770942,"NWIS","USGS-IA","USGS Iowa Water Science Center","USGS-05474000","Skunk River at Augusta, IA","Stream","Stream","07080107","https://www.waterqualitydata.us/data/provider/NWIS/USGS-IA/USGS-05474000/",273,585,"Iowa","Des Moines County"
"236","FeatureCollection Feature Point",41.5561111,-90.1852778,"NWIS","USGS-IL","USGS Illinois Water Science Center","USGS-05446500","ROCK RIVER NEAR JOSLIN, IL","Stream","Stream","07090005","https://www.waterqualitydata.us/data/provider/NWIS/USGS-IL/USGS-05446500/",368,630,"Illinois","Rock Island County"
"237","FeatureCollection Feature Point",40.3303217,-90.8962451,"NWIS","USGS-IL","USGS Illinois Water Science Center","USGS-05584500","LA MOINE RIVER AT COLMAR, IL","Stream","Stream","07130010","https://www.waterqualitydata.us/data/provider/NWIS/USGS-IL/USGS-05584500/",347,548,"Illinois","McDonough County"
"238","FeatureCollection Feature Point",39.7033802,-90.6454047,"NWIS","USGS-IL","USGS Illinois Water Science Center","USGS-05586100","ILLINOIS RIVER AT VALLEY CITY, IL","Stream","Stream","07130011","https://www.waterqualitydata.us/data/provider/NWIS/USGS-IL/USGS-05586100/",547,987,"Illinois","Scott County"
"239","FeatureCollection Feature Point",39.8966389,-91.5801667,"NWIS","USGS-MO","USGS Missouri Water Science Center","USGS-05500000","South Fabius River near Taylor, MO","Stream","Stream","07110003","https://www.waterqualitydata.us/data/provider/NWIS/USGS-MO/USGS-05500000/",447,722,"Missouri","Marion County"
"240","FeatureCollection Feature Point",39.75325,-94.8568333,"NWIS","USGS-MO","USGS Missouri Water Science Center","USGS-06818000","Missouri River at St. Joseph, MO","Stream","Stream","10240011","https://www.waterqualitydata.us/data/provider/NWIS/USGS-MO/USGS-06818000/",583,1119,"Missouri","Buchanan County"
"241","FeatureCollection Feature Point",40.3172354,-93.3813273,"NWIS","USGS-MO","USGS Missouri Water Science Center","USGS-06900100","Little Medicine Creek near Harris","Stream","Stream","10280103","https://www.waterqualitydata.us/data/provider/NWIS/USGS-MO/USGS-06900100/",259,510,"Missouri","Mercer County"
"242","FeatureCollection Feature Point",39.6400278,-93.2736944,"NWIS","USGS-MO","USGS Missouri Water Science Center","USGS-06902000","Grand River near Sumner, MO","Stream","Stream","10280103","https://www.waterqualitydata.us/data/provider/NWIS/USGS-MO/USGS-06902000/",594,1164,"Missouri","Livingston County"
"243","FeatureCollection Feature Point",39.5399444,-92.79075,"NWIS","USGS-MO","USGS Missouri Water Science Center","USGS-06905500","Chariton River near Prairie Hill, MO","Stream","Stream","10280202","https://www.waterqualitydata.us/data/provider/NWIS/USGS-MO/USGS-06905500/",381,699,"Missouri","Chariton County"
"244","FeatureCollection Feature Point",44.2146857,-91.6651532,"NWIS","USGS-WI","USGS Wisconsin Water Science Center","USGS-05378183","JOOS VALLEY CREEK NEAR FOUNTAIN CITY, WI","Stream","Stream","07040003","https://www.waterqualitydata.us/data/provider/NWIS/USGS-WI/USGS-05378183/",788,912,"Wisconsin","Buffalo County"
"245","FeatureCollection Feature Point",44.209408,-91.6784864,"NWIS","USGS-WI","USGS Wisconsin Water Science Center","USGS-05378185","EAGLE CREEK AT CT HIGHWAY G NEAR FOUNTAIN CITY, WI","Stream","Stream","07040003","https://www.waterqualitydata.us/data/provider/NWIS/USGS-WI/USGS-05378185/",782,902,"Wisconsin","Buffalo County"
"246","FeatureCollection Feature Point",42.710829,-90.3995726,"NWIS","USGS-WI","USGS Wisconsin Water Science Center","USGS-05414850","GALENA R.-U.W. PLATTEVILLE FARMS-NR PLATTEVILLE,WI","Stream","Stream","07060005","https://www.waterqualitydata.us/data/provider/NWIS/USGS-WI/USGS-05414850/",278,555,"Wisconsin","Lafayette County"
"247","FeatureCollection Feature Point",44.037111,-92.104611,"STORET","MNDA_PESTICIDE","Minnesota Department of Agriculture - Pesticide Monitoring","MNDA_PESTICIDE-S001-831","MID FK WHTWTR R AT CR-107, 5 MI N OF ST. CHARLES","River/Stream","Stream","07040003","https://www.waterqualitydata.us/data/provider/STORET/MNDA_PESTICIDE/MNDA_PESTICIDE-S001-831/",808,808,"Minnesota","Olmsted County"
"248","FeatureCollection Feature Point",44.307528,-93.96025,"STORET","MNPCA","Minnesota Pollution Control Agency - Ambient Surface Water","MNPCA-S000-041","MINNESOTA RIVER AT BRIDGE ON MN-22 AT ST. PETER","River/Stream","Stream","07020007","https://www.waterqualitydata.us/data/provider/STORET/MNPCA/MNPCA-S000-041/",568,568,"Minnesota","Nicollet County"
"249","FeatureCollection Feature Point",43.513917,-93.268611,"STORET","MNPCA","Minnesota Pollution Control Agency - Ambient Surface Water","MNPCA-S000-084","SHELL ROCK R BR ON CSAH-1 1 MI W OF GORDONSVILLE","River/Stream","Stream","07080202","https://www.waterqualitydata.us/data/provider/STORET/MNPCA/MNPCA-S000-084/",669,670,"Minnesota","Freeborn County"
"250","FeatureCollection Feature Point",44.046167,-94.194694,"STORET","MNPCA","Minnesota Pollution Control Agency - Ambient Surface Water","MNPCA-S000-163","WATONWAN R BR ON CSAH-13, 1 MI W OF GARDEN CITY","River/Stream","Stream","07020010","https://www.waterqualitydata.us/data/provider/STORET/MNPCA/MNPCA-S000-163/",952,958,"Minnesota","Blue Earth County"
"251","FeatureCollection Feature Point",44.117306,-94.049667,"STORET","MNPCA","Minnesota Pollution Control Agency - Ambient Surface Water","MNPCA-S000-340","LESUEUR R MN-66 1.5 MI NE OF RAPIDAN","River/Stream","Stream","07020011","https://www.waterqualitydata.us/data/provider/STORET/MNPCA/MNPCA-S000-340/",519,559,"Minnesota","Blue Earth County"
"252","FeatureCollection Feature Point",44.093056,-94.108028,"STORET","MNPCA","Minnesota Pollution Control Agency - Ambient Surface Water","MNPCA-S001-231","BLUE EARTH RIVER 150 FT DNST OF RAPIDAN DAM","River/Stream","Stream","07020009","https://www.waterqualitydata.us/data/provider/STORET/MNPCA/MNPCA-S001-231/",466,510,"Minnesota","Blue Earth County"
"253","FeatureCollection Feature Point",44.28915,-94.439226,"STORET","MNPCA","Minnesota Pollution Control Agency - Ambient Surface Water","MNPCA-S001-918","COTTONWOOD R AT COTTONWOOD ST BRG IN NEW ULM. MN","River/Stream","Stream","07020008","https://www.waterqualitydata.us/data/provider/STORET/MNPCA/MNPCA-S001-918/",658,658,"Minnesota","Brown County"
"254","FeatureCollection Feature Point",44.065221,-94.02602,"STORET","MNPCA","Minnesota Pollution Control Agency - Ambient Surface Water","MNPCA-S002-427","MAPLE R AT CSAH 35 5.2 MI S OF MANKATO, MN","River/Stream","Stream","07020011","https://www.waterqualitydata.us/data/provider/STORET/MNPCA/MNPCA-S002-427/",571,571,"Minnesota","Blue Earth County"
"255","FeatureCollection Feature Point",44.263228,-94.03156,"STORET","MNPCA","Minnesota Pollution Control Agency - Ambient Surface Water","MNPCA-S002-937","SEVENMILE CK IN SEVENMILE CK CTY PK, 5.5 MI SW OF ST. PETER","River/Stream","Stream","07020007","https://www.waterqualitydata.us/data/provider/STORET/MNPCA/MNPCA-S002-937/",504,504,"Minnesota","Nicollet County"
"256","FeatureCollection Feature Point",45.1632981,-93.4366212,"NWIS","USGS-MN","USGS Minnesota Water Science Center","USGS-05287890","ELM CREEK NR CHAMPLIN, MN","Stream","Stream","07010206","https://www.waterqualitydata.us/data/provider/NWIS/USGS-MN/USGS-05287890/",680,1211,"Minnesota","Hennepin County"
"257","FeatureCollection Feature Point",45.0499651,-93.3102274,"NWIS","USGS-MN","USGS Minnesota Water Science Center","USGS-05288705","SHINGLE CREEK AT QUEEN AVE IN MINNEAPOLIS, MN","Stream","Stream","07010206","https://www.waterqualitydata.us/data/provider/NWIS/USGS-MN/USGS-05288705/",397,668,"Minnesota","Hennepin County"
"258","FeatureCollection Feature Point",44.6930184,-93.641902,"NWIS","USGS-MN","USGS Minnesota Water Science Center","USGS-05330000","MINNESOTA RIVER NEAR JORDAN, MN","Stream","Stream","07020012","https://www.waterqualitydata.us/data/provider/NWIS/USGS-MN/USGS-05330000/",261,508,"Minnesota","Carver County"
"259","FeatureCollection Feature Point",46.9566252,-94.6741707,"NWIS","USGS-MN","USGS Minnesota Water Science Center","USGS-465724094402601","WILLIAMS LAKE NEAR AKELEY, MN","Lake, Reservoir, Impoundment","Lake, Reservoir, Impoundment","07010102","https://www.waterqualitydata.us/data/provider/NWIS/USGS-MN/USGS-465724094402601/",1048,1050,"Minnesota","Hubbard County"
"260","FeatureCollection Feature Point",45.123424,-93.045533,"STORET","MNPCA","Minnesota Pollution Control Agency - Ambient Surface Water","MNPCA-02-0003-00-204","OTTER","Lake","Lake, Reservoir, Impoundment","07010206","https://www.waterqualitydata.us/data/provider/STORET/MNPCA/MNPCA-02-0003-00-204/",650,652,"Minnesota","Ramsey County"
"261","FeatureCollection Feature Point",45.139543,-93.153298,"STORET","MNPCA","Minnesota Pollution Control Agency - Ambient Surface Water","MNPCA-02-0045-00-202","GOLDEN","Lake","Lake, Reservoir, Impoundment","07010206","https://www.waterqualitydata.us/data/provider/STORET/MNPCA/MNPCA-02-0045-00-202/",741,859,"Minnesota","Anoka County"
"262","FeatureCollection Feature Point",44.835424,-93.518076,"STORET","MNPCA","Minnesota Pollution Control Agency - Ambient Surface Water","MNPCA-10-0002-00-451","RILEY","Lake","Lake, Reservoir, Impoundment","07020012","https://www.waterqualitydata.us/data/provider/STORET/MNPCA/MNPCA-10-0002-00-451/",856,879,"Minnesota","Hennepin County"
"263","FeatureCollection Feature Point",44.879888,-93.727351,"STORET","MNPCA","Minnesota Pollution Control Agency - Ambient Surface Water","MNPCA-10-0042-00-401","PARLEY","Lake","Lake, Reservoir, Impoundment","07010206","https://www.waterqualitydata.us/data/provider/STORET/MNPCA/MNPCA-10-0042-00-401/",517,538,"Minnesota","Carver County"
"264","FeatureCollection Feature Point",44.868321,-93.694691,"STORET","MNPCA","Minnesota Pollution Control Agency - Ambient Surface Water","MNPCA-10-0044-01-201","AUBURN (WEST BAY)","Lake","Lake, Reservoir, Impoundment","07010206","https://www.waterqualitydata.us/data/provider/STORET/MNPCA/MNPCA-10-0044-01-201/",538,548,"Minnesota","Carver County"
"265","FeatureCollection Feature Point",44.841113,-93.673516,"STORET","MNPCA","Minnesota Pollution Control Agency - Ambient Surface Water","MNPCA-10-0048-00-201","WASSERMANN","Lake","Lake, Reservoir, Impoundment","07010206","https://www.waterqualitydata.us/data/provider/STORET/MNPCA/MNPCA-10-0048-00-201/",667,844,"Minnesota","Carver County"
"266","FeatureCollection Feature Point",44.723726,-93.2713,"STORET","MNPCA","Minnesota Pollution Control Agency - Ambient Surface Water","MNPCA-19-0027-00-204","CRYSTAL","Lake","Lake, Reservoir, Impoundment","07020012","https://www.waterqualitydata.us/data/provider/STORET/MNPCA/MNPCA-19-0027-00-204/",624,721,"Minnesota","Dakota County"
"267","FeatureCollection Feature Point",44.940854,-93.256166,"STORET","MNPCA","Minnesota Pollution Control Agency - Ambient Surface Water","MNPCA-27-0014-00-201","POWDERHORN","Lake","Lake, Reservoir, Impoundment","07010206","https://www.waterqualitydata.us/data/provider/STORET/MNPCA/MNPCA-27-0014-00-201/",971,1041,"Minnesota","Hennepin County"
"268","FeatureCollection Feature Point",44.920625,-93.306019,"STORET","MNPCA","Minnesota Pollution Control Agency - Ambient Surface Water","MNPCA-27-0016-00-201","HARRIET","Lake","Lake, Reservoir, Impoundment","07010206","https://www.waterqualitydata.us/data/provider/STORET/MNPCA/MNPCA-27-0016-00-201/",2157,2376,"Minnesota","Hennepin County"
"269","FeatureCollection Feature Point",44.921119,-93.23622,"STORET","MNPCA","Minnesota Pollution Control Agency - Ambient Surface Water","MNPCA-27-0018-00-201","HIAWATHA","Lake","Lake, Reservoir, Impoundment","07010206","https://www.waterqualitydata.us/data/provider/STORET/MNPCA/MNPCA-27-0018-00-201/",681,681,"Minnesota","Hennepin County"
"270","FeatureCollection Feature Point",44.907535,-93.24047,"STORET","MNPCA","Minnesota Pollution Control Agency - Ambient Surface Water","MNPCA-27-0019-00-203","NOKOMIS","Lake","Lake, Reservoir, Impoundment","07010206","https://www.waterqualitydata.us/data/provider/STORET/MNPCA/MNPCA-27-0019-00-203/",988,1062,"Minnesota","Hennepin County"
"271","FeatureCollection Feature Point",44.939891,-93.310436,"STORET","MNPCA","Minnesota Pollution Control Agency - Ambient Surface Water","MNPCA-27-0031-00-204","BDE MAKA SKA (CALHOUN)","Lake","Lake, Reservoir, Impoundment","07010206","https://www.waterqualitydata.us/data/provider/STORET/MNPCA/MNPCA-27-0031-00-204/",1974,2147,"Minnesota","Hennepin County"
"272","FeatureCollection Feature Point",44.982525,-93.323122,"STORET","MNPCA","Minnesota Pollution Control Agency - Ambient Surface Water","MNPCA-27-0037-00-102","WIRTH","Lake","Lake, Reservoir, Impoundment","07010206","https://www.waterqualitydata.us/data/provider/STORET/MNPCA/MNPCA-27-0037-00-102/",1091,1091,"Minnesota","Hennepin County"
"273","FeatureCollection Feature Point",44.961482,-93.32013,"STORET","MNPCA","Minnesota Pollution Control Agency - Ambient Surface Water","MNPCA-27-0039-00-202","CEDAR","Lake","Lake, Reservoir, Impoundment","07010206","https://www.waterqualitydata.us/data/provider/STORET/MNPCA/MNPCA-27-0039-00-202/",1697,1848,"Minnesota","Hennepin County"
"274","FeatureCollection Feature Point",44.953884,-93.308976,"STORET","MNPCA","Minnesota Pollution Control Agency - Ambient Surface Water","MNPCA-27-0040-00-201","LAKE OF THE ISLES","Lake","Lake, Reservoir, Impoundment","07010206","https://www.waterqualitydata.us/data/provider/STORET/MNPCA/MNPCA-27-0040-00-201/",1270,1365,"Minnesota","Hennepin County"
"275","FeatureCollection Feature Point",44.876935,-93.428548,"STORET","MNPCA","Minnesota Pollution Control Agency - Ambient Surface Water","MNPCA-27-0067-00-201","BRYANT","Lake","Lake, Reservoir, Impoundment","07020012","https://www.waterqualitydata.us/data/provider/STORET/MNPCA/MNPCA-27-0067-00-201/",1034,1170,"Minnesota","Hennepin County"
"276","FeatureCollection Feature Point",45.00517,-93.414786,"STORET","MNPCA","Minnesota Pollution Control Agency - Ambient Surface Water","MNPCA-27-0104-00-208","MEDICINE","Lake","Lake, Reservoir, Impoundment","07010206","https://www.waterqualitydata.us/data/provider/STORET/MNPCA/MNPCA-27-0104-00-208/",850,850,"Minnesota","Hennepin County"
"277","FeatureCollection Feature Point",44.992515,-93.471377,"STORET","MNPCA","Minnesota Pollution Control Agency - Ambient Surface Water","MNPCA-27-0107-00-201","PARKERS","Lake","Lake, Reservoir, Impoundment","07010206","https://www.waterqualitydata.us/data/provider/STORET/MNPCA/MNPCA-27-0107-00-201/",687,727,"Minnesota","Hennepin County"
"278","FeatureCollection Feature Point",45.109891,-93.500675,"STORET","MNPCA","Minnesota Pollution Control Agency - Ambient Surface Water","MNPCA-27-0117-00-402","WEAVER","Lake","Lake, Reservoir, Impoundment","07010206","https://www.waterqualitydata.us/data/provider/STORET/MNPCA/MNPCA-27-0117-00-402/",608,608,"Minnesota","Hennepin County"
"279","FeatureCollection Feature Point",45.088084,-93.466817,"STORET","MNPCA","Minnesota Pollution Control Agency - Ambient Surface Water","MNPCA-27-0118-00-404","FISH","Lake","Lake, Reservoir, Impoundment","07010206","https://www.waterqualitydata.us/data/provider/STORET/MNPCA/MNPCA-27-0118-00-404/",599,615,"Minnesota","Hennepin County"
"280","FeatureCollection Feature Point",44.905818,-93.663955,"STORET","MNPCA","Minnesota Pollution Control Agency - Ambient Surface Water","MNPCA-27-0133-05-203","MINNETONKA (UPPER LAKE)","Lake","Lake, Reservoir, Impoundment","07010206","https://www.waterqualitydata.us/data/provider/STORET/MNPCA/MNPCA-27-0133-05-203/",447,519,"Minnesota","Hennepin County"
"281","FeatureCollection Feature Point",44.913781,-93.690395,"STORET","MNPCA","Minnesota Pollution Control Agency - Ambient Surface Water","MNPCA-27-0133-09-201","MINNETONKA (HALSTEDS BAY)","Lake","Lake, Reservoir, Impoundment","07010206","https://www.waterqualitydata.us/data/provider/STORET/MNPCA/MNPCA-27-0133-09-201/",488,566,"Minnesota","Hennepin County"
"282","FeatureCollection Feature Point",44.949544,-93.59301,"STORET","MNPCA","Minnesota Pollution Control Agency - Ambient Surface Water","MNPCA-27-0133-10-101","MINNETONKA (CRYSTAL BAY)","Lake","Lake, Reservoir, Impoundment","07010206","https://www.waterqualitydata.us/data/provider/STORET/MNPCA/MNPCA-27-0133-10-101/",481,545,"Minnesota","Hennepin County"
"283","FeatureCollection Feature Point",45.025285,-93.644808,"STORET","MNPCA","Minnesota Pollution Control Agency - Ambient Surface Water","MNPCA-27-0176-00-202","INDEPENDENCE","Lake","Lake, Reservoir, Impoundment","07010205","https://www.waterqualitydata.us/data/provider/STORET/MNPCA/MNPCA-27-0176-00-202/",777,781,"Minnesota","Hennepin County"
"284","FeatureCollection Feature Point",45.065204,-93.740444,"STORET","MNPCA","Minnesota Pollution Control Agency - Ambient Surface Water","MNPCA-27-0192-00-402","REBECCA","Lake","Lake, Reservoir, Impoundment","07010205","https://www.waterqualitydata.us/data/provider/STORET/MNPCA/MNPCA-27-0192-00-402/",564,564,"Minnesota","Hennepin County"
"285","FeatureCollection Feature Point",44.969116,-93.284317,"STORET","MNPCA","Minnesota Pollution Control Agency - Ambient Surface Water","MNPCA-27-0655-02-201","LORING (S. BAY)","Lake","Lake, Reservoir, Impoundment","07010206","https://www.waterqualitydata.us/data/provider/STORET/MNPCA/MNPCA-27-0655-02-201/",622,622,"Minnesota","Hennepin County"
"286","FeatureCollection Feature Point",45.028067,-92.986056,"STORET","MNPCA","Minnesota Pollution Control Agency - Ambient Surface Water","MNPCA-62-0001-00-202","SILVER","Lake","Lake, Reservoir, Impoundment","07030005","https://www.waterqualitydata.us/data/provider/STORET/MNPCA/MNPCA-62-0001-00-202/",824,866,"Minnesota","Ramsey County"
"287","FeatureCollection Feature Point",45.110124,-93.013643,"STORET","MNPCA","Minnesota Pollution Control Agency - Ambient Surface Water","MNPCA-62-0002-00-207","BALD EAGLE","Lake","Lake, Reservoir, Impoundment","07010206","https://www.waterqualitydata.us/data/provider/STORET/MNPCA/MNPCA-62-0002-00-207/",1120,1182,"Minnesota","Ramsey County"
"288","FeatureCollection Feature Point",45.024597,-93.058019,"STORET","MNPCA","Minnesota Pollution Control Agency - Ambient Surface Water","MNPCA-62-0006-00-202","KOHLMAN","Lake","Lake, Reservoir, Impoundment","07010206","https://www.waterqualitydata.us/data/provider/STORET/MNPCA/MNPCA-62-0006-00-202/",701,746,"Minnesota","Ramsey County"
"289","FeatureCollection Feature Point",45.017113,-93.071596,"STORET","MNPCA","Minnesota Pollution Control Agency - Ambient Surface Water","MNPCA-62-0007-00-203","GERVAIS","Lake","Lake, Reservoir, Impoundment","07010206","https://www.waterqualitydata.us/data/provider/STORET/MNPCA/MNPCA-62-0007-00-203/",1482,1482,"Minnesota","Ramsey County"
"290","FeatureCollection Feature Point",45.009981,-93.060864,"STORET","MNPCA","Minnesota Pollution Control Agency - Ambient Surface Water","MNPCA-62-0010-02-401","KELLER (MAIN)","Lake","Lake, Reservoir, Impoundment","07010206","https://www.waterqualitydata.us/data/provider/STORET/MNPCA/MNPCA-62-0010-02-401/",626,626,"Minnesota","Ramsey County"
"291","FeatureCollection Feature Point",44.993866,-93.062522,"STORET","MNPCA","Minnesota Pollution Control Agency - Ambient Surface Water","MNPCA-62-0012-00-201","ROUND","Lake","Lake, Reservoir, Impoundment","07010206","https://www.waterqualitydata.us/data/provider/STORET/MNPCA/MNPCA-62-0012-00-201/",847,847,"Minnesota","Ramsey County"
"292","FeatureCollection Feature Point",44.992753,-93.056277,"STORET","MNPCA","Minnesota Pollution Control Agency - Ambient Surface Water","MNPCA-62-0013-00-201","PHALEN","Lake","Lake, Reservoir, Impoundment","07010206","https://www.waterqualitydata.us/data/provider/STORET/MNPCA/MNPCA-62-0013-00-201/",1716,1730,"Minnesota","Ramsey County"
"293","FeatureCollection Feature Point",44.973319,-93.005172,"STORET","MNPCA","Minnesota Pollution Control Agency - Ambient Surface Water","MNPCA-62-0016-00-201","BEAVER","Lake","Lake, Reservoir, Impoundment","07010206","https://www.waterqualitydata.us/data/provider/STORET/MNPCA/MNPCA-62-0016-00-201/",507,507,"Minnesota","Ramsey County"
"294","FeatureCollection Feature Point",45.040253,-93.09013,"STORET","MNPCA","Minnesota Pollution Control Agency - Ambient Surface Water","MNPCA-62-0039-00-201","TWIN","Lake","Lake, Reservoir, Impoundment","07010206","https://www.waterqualitydata.us/data/provider/STORET/MNPCA/MNPCA-62-0039-00-201/",581,581,"Minnesota","Ramsey County"
"295","FeatureCollection Feature Point",44.998249,-93.111918,"STORET","MNPCA","Minnesota Pollution Control Agency - Ambient Surface Water","MNPCA-62-0054-00-101","McCARRON","Lake","Lake, Reservoir, Impoundment","07010206","https://www.waterqualitydata.us/data/provider/STORET/MNPCA/MNPCA-62-0054-00-101/",2226,2747,"Minnesota","Ramsey County"
"296","FeatureCollection Feature Point",44.979902,-93.141066,"STORET","MNPCA","Minnesota Pollution Control Agency - Ambient Surface Water","MNPCA-62-0055-00-201","COMO","Lake","Lake, Reservoir, Impoundment","07010206","https://www.waterqualitydata.us/data/provider/STORET/MNPCA/MNPCA-62-0055-00-201/",1112,1112,"Minnesota","Ramsey County"
"297","FeatureCollection Feature Point",45.038849,-93.123541,"STORET","MNPCA","Minnesota Pollution Control Agency - Ambient Surface Water","MNPCA-62-0056-00-212","OWASSO","Lake","Lake, Reservoir, Impoundment","07010206","https://www.waterqualitydata.us/data/provider/STORET/MNPCA/MNPCA-62-0056-00-212/",1186,1342,"Minnesota","Ramsey County"
"298","FeatureCollection Feature Point",45.033216,-93.151771,"STORET","MNPCA","Minnesota Pollution Control Agency - Ambient Surface Water","MNPCA-62-0057-00-401","JOSEPHINE","Lake","Lake, Reservoir, Impoundment","07010206","https://www.waterqualitydata.us/data/provider/STORET/MNPCA/MNPCA-62-0057-00-401/",1464,1464,"Minnesota","Ramsey County"
"299","FeatureCollection Feature Point",45.097989,-93.137151,"STORET","MNPCA","Minnesota Pollution Control Agency - Ambient Surface Water","MNPCA-62-0061-00-208","TURTLE","Lake","Lake, Reservoir, Impoundment","07010206","https://www.waterqualitydata.us/data/provider/STORET/MNPCA/MNPCA-62-0061-00-208/",854,862,"Minnesota","Ramsey County"
"300","FeatureCollection Feature Point",45.072359,-93.199232,"STORET","MNPCA","Minnesota Pollution Control Agency - Ambient Surface Water","MNPCA-62-0067-01-201","North Long","Lake","Lake, Reservoir, Impoundment","07010206","https://www.waterqualitydata.us/data/provider/STORET/MNPCA/MNPCA-62-0067-01-201/",880,880,"Minnesota","Ramsey County"
"301","FeatureCollection Feature Point",45.072359,-93.199232,"STORET","MNPCA","Minnesota Pollution Control Agency - Ambient Surface Water","MNPCA-62-0067-02-202","South Long","Lake","Lake, Reservoir, Impoundment","07010206","https://www.waterqualitydata.us/data/provider/STORET/MNPCA/MNPCA-62-0067-02-202/",1269,1269,"Minnesota","Ramsey County"
"302","FeatureCollection Feature Point",45.069343,-93.122653,"STORET","MNPCA","Minnesota Pollution Control Agency - Ambient Surface Water","MNPCA-62-0073-00-201","SNAIL","Lake","Lake, Reservoir, Impoundment","07010206","https://www.waterqualitydata.us/data/provider/STORET/MNPCA/MNPCA-62-0073-00-201/",965,969,"Minnesota","Ramsey County"
"303","FeatureCollection Feature Point",45.053165,-93.136507,"STORET","MNPCA","Minnesota Pollution Control Agency - Ambient Surface Water","MNPCA-62-0075-01-202","ISLAND (BASIN S. OF I-694)","Lake","Lake, Reservoir, Impoundment","07010206","https://www.waterqualitydata.us/data/provider/STORET/MNPCA/MNPCA-62-0075-01-202/",598,598,"Minnesota","Ramsey County"
"304","FeatureCollection Feature Point",45.040041,-93.17239,"STORET","MNPCA","Minnesota Pollution Control Agency - Ambient Surface Water","MNPCA-62-0078-00-204","JOHANNA","Lake","Lake, Reservoir, Impoundment","07010206","https://www.waterqualitydata.us/data/provider/STORET/MNPCA/MNPCA-62-0078-00-204/",1249,1257,"Minnesota","Ramsey County"
"305","FeatureCollection Feature Point",45.044464,-93.116732,"STORET","MNPCA","Minnesota Pollution Control Agency - Ambient Surface Water","MNPCA-62-0082-00-201","WABASSO","Lake","Lake, Reservoir, Impoundment","07010206","https://www.waterqualitydata.us/data/provider/STORET/MNPCA/MNPCA-62-0082-00-201/",1434,1442,"Minnesota","Ramsey County"
"306","FeatureCollection Feature Point",45.044741,-93.226134,"STORET","MNPCA","Minnesota Pollution Control Agency - Ambient Surface Water","MNPCA-62-0083-00-204","SILVER","Lake","Lake, Reservoir, Impoundment","07010206","https://www.waterqualitydata.us/data/provider/STORET/MNPCA/MNPCA-62-0083-00-204/",1156,1159,"Minnesota","Ramsey County"
"307","FeatureCollection Feature Point",44.702046,-93.474767,"STORET","MNPCA","Minnesota Pollution Control Agency - Ambient Surface Water","MNPCA-70-0054-00-205","SPRING","Lake","Lake, Reservoir, Impoundment","07020012","https://www.waterqualitydata.us/data/provider/STORET/MNPCA/MNPCA-70-0054-00-205/",580,580,"Minnesota","Scott County"
"308","FeatureCollection Feature Point",44.652611,-93.460047,"STORET","MNPCA","Minnesota Pollution Control Agency - Ambient Surface Water","MNPCA-70-0069-00-204","FISH","Lake","Lake, Reservoir, Impoundment","07020012","https://www.waterqualitydata.us/data/provider/STORET/MNPCA/MNPCA-70-0069-00-204/",534,534,"Minnesota","Scott County"
